[{"id":"1-1-80-22W4","name":"CNRL CBP1-1D BRINT 1-1-80-22","lic":"428108","st":"PUMP","fl":"CR-BIT","lat":55.874129,"lon":-113.26302},{"id":"1-1-80-22W4","name":"CNRL CBP1-1B BRINT 1-1-80-22","lic":"428185","st":"PUMP","fl":"CR-BIT","lat":55.874129,"lon":-113.26302},{"id":"1-1-81-21W4","name":"CNRL JOLI FOU 1-1-81-21","lic":"163969","st":"ABD","fl":"N/A","lat":55.96112,"lon":-113.114785},{"id":"1-1-82-22W4","name":"CNRL NHP5-1D BRINT 1-1-82-22","lic":"419452","st":"N/A","fl":"WATER","lat":56.048112,"lon":-113.277745},{"id":"1-1-82-22W4","name":"CNRL NHP5-1A BRINT 1-1-82-22","lic":"419453","st":"PUMP","fl":"CR-BIT","lat":56.048112,"lon":-113.277745},{"id":"1-10-81-21W4","name":"CNRL CBP12-1B BRINT 16-3-81-21","lic":"352013","st":"PUMP","fl":"CR-BIT","lat":55.975619,"lon":-113.166644},{"id":"1-10-83-21W4","name":"CNRL GERMAIN 1-10-83-21","lic":"211702","st":"ABD","fl":"N/A","lat":56.149602,"lon":-113.180981},{"id":"1-11-79-23W4","name":"CNRL DWP11 NI1 PEERLESS 1-11-79-23","lic":"523132","st":"N/A","fl":"N/A","lat":55.801636,"lon":-113.436413},{"id":"1-11-80-22W4","name":"CNRL BRINT 1-11-80-22","lic":"343257","st":"ABD","fl":"N/A","lat":55.888628,"lon":-113.288892},{"id":"1-11-81-21W4","name":"CNRL CBP13-1B BRINT 1-11-81-21","lic":"349095","st":"SUSP","fl":"CR-BIT","lat":55.975619,"lon":-113.140715},{"id":"1-11-81-21W4","name":"CNRL CBP13-1B2 RE BRINT 1-11-81-21","lic":"349096","st":"N/A","fl":"N/A","lat":55.975619,"lon":-113.140715},{"id":"1-12-80-22W4","name":"CNRL SBP42-1D BRINT 1-12-80-22","lic":"351883","st":"PUMP","fl":"CR-BIT","lat":55.888628,"lon":-113.26302},{"id":"1-12-82-22W4","name":"CNRL NHP7-1D BRINT 1-12-82-22","lic":"515024","st":"PUMP","fl":"CR-BIT","lat":56.06261,"lon":-113.277745},{"id":"1-13-78-23W4","name":"CNRL DWP27-SM1 DRIFTW 1-13-78-23","lic":"520389","st":"N/A","fl":"N/A","lat":55.729143,"lon":-113.402993},{"id":"1-13-78-23W4","name":"CNRL DWP27-SM1 DRIFTW 1-13-78-23","lic":"520389","st":"N/A","fl":"N/A","lat":55.729143,"lon":-113.402993},{"id":"1-13-80-22W4","name":"CNRL SBP41-1A BRINT 1-13-80-22","lic":"357043","st":"N/A","fl":"WATER","lat":55.903126,"lon":-113.26302},{"id":"1-13-81-23W4","name":"CNRL WBP35-1D BRINT 1-13-81-23","lic":"463364","st":"N/A","fl":"WATER","lat":55.990118,"lon":-113.425939},{"id":"1-14-79-23W4","name":"CNRL DWP11 NI4 PEERLESS 1-14-79-23","lic":"523145","st":"N/A","fl":"N/A","lat":55.816135,"lon":-113.436413},{"id":"1-14-79-23W4","name":"CNRL DWP11 NP2 PEERLESS 1-14-79-23","lic":"523146","st":"N/A","fl":"N/A","lat":55.816135,"lon":-113.436413},{"id":"1-14-80-23W4","name":"CNRL SBP46-1B BRINT 1-14-80-23","lic":"505655","st":"N/A","fl":"N/A","lat":55.903126,"lon":-113.44412},{"id":"1-15-82-22W4","name":"CNRL BRINT 1-15-82-22","lic":"194460","st":"ABD","fl":"N/A","lat":56.077109,"lon":-113.329721},{"id":"1-15-83-20W4","name":"CNRL NW01-1D SANDY 1-15-83-20","lic":"508675","st":"PUMP","fl":"CR-BIT","lat":56.1641,"lon":-113.024699},{"id":"1-16-81-22W4","name":"CNRL BP18-1A BRINT 1-16-81-22","lic":"420923","st":"N/A","fl":"WATER","lat":55.990118,"lon":-113.348151},{"id":"1-16-82-23W4","name":"CNRL NHP 16-4B BRINT 1-16-82-23","lic":"363839","st":"N/A","fl":"N/A","lat":56.077109,"lon":-113.511637},{"id":"1-16-83-20W4","name":"CNRL NW03-1D RE SANDY 1-16-83-20","lic":"467174","st":"PUMP","fl":"CR-BIT","lat":56.1641,"lon":-113.050746},{"id":"1-17-82-23W4","name":"CNRL WSW BRINT 1-17-82-23","lic":"337064","st":"N/A","fl":"WATER","lat":56.077109,"lon":-113.537626},{"id":"1-18-80-20W4","name":"CNRL BRNP3-13D BARNEY 1-18-80-20","lic":"520334","st":"N/A","fl":"N/A","lat":55.903126,"lon":-113.081921},{"id":"1-18-80-20W4","name":"CNRL BRNP3-11B  BARNEY 1-18-80-20","lic":"520333","st":"N/A","fl":"N/A","lat":55.903126,"lon":-113.081921},{"id":"1-18-81-22W4","name":"CNRL WBP36-1D BRINT 1-18-81-22","lic":"413504","st":"N/A","fl":"WATER","lat":55.990118,"lon":-113.40001},{"id":"1-18-81-22W4","name":"CNRL WBP36-RW BRINT 1-18-81-22","lic":"413507","st":"N/A","fl":"WATER","lat":55.990118,"lon":-113.40001},{"id":"1-19-82-19W4","name":"CNRL NBP30-1A DEADM 1-19-82-19","lic":"373448","st":"SUSP","fl":"CR-BIT","lat":56.091607,"lon":-112.9399},{"id":"1-19-82-19W4","name":"CNRL NBP31-1A DEADM 1-19-82-19","lic":"393183","st":"N/A","fl":"WATER","lat":56.091607,"lon":-112.9399},{"id":"1-19-82-20W4","name":"CNRL NBP15-1A SANDY 1-30-82-20","lic":"334980","st":"SUSP","fl":"CR-BIT","lat":56.091607,"lon":-113.095828},{"id":"1-20-79-21W4","name":"CNRL SLP6-1B PEERLESS 1-20-79-21","lic":"408171","st":"PUMP","fl":"CR-BIT","lat":55.830633,"lon":-113.204092},{"id":"1-20-79-21W4","name":"CNRL SLP6-1A PEERLESS 1-20-79-21","lic":"408172","st":"PUMP","fl":"CR-BIT","lat":55.830633,"lon":-113.204092},{"id":"1-20-79-21W4","name":"CNRL SLP6-RW PEERLESS 1-20-79-21","lic":"408174","st":"PUMP","fl":"CR-BIT","lat":55.830633,"lon":-113.204092},{"id":"1-20-82-19W4","name":"CNRL NBP33-1B 103 DEADM 1-20-82-19","lic":"406478","st":"PUMP","fl":"CR-BIT","lat":56.091607,"lon":-112.913912},{"id":"1-20-82-20W4","name":"CNRL NBP18-1A SANDY 1-20-82-20","lic":"342651","st":"PUMP","fl":"CR-BIT","lat":56.091607,"lon":-113.06984},{"id":"1-21-81-20W4","name":"CNRL JOLI FOU 1-21-81-20","lic":"183732","st":"ABD","fl":"N/A","lat":56.004616,"lon":-113.036996},{"id":"1-21-82-19W4","name":"CNRL NBP36-1A DEADM 1-21-82-19","lic":"390910","st":"N/A","fl":"WATER","lat":56.091607,"lon":-112.887924},{"id":"1-21-82-19W4","name":"CNRL NBP35-1B DEADM 1-21-82-19","lic":"413898","st":"PUMP","fl":"CR-BIT","lat":56.091607,"lon":-112.887924},{"id":"1-21-82-19W4","name":"CNRL NBP36-1A 102 DEADM 1-21-82-19","lic":"413944","st":"PUMP","fl":"CR-BIT","lat":56.091607,"lon":-112.887924},{"id":"1-21-82-20W4","name":"CNRL NBP20-1B SANDY 1-21-82-20","lic":"344632","st":"N/A","fl":"WATER","lat":56.091607,"lon":-113.043852},{"id":"1-21-82-20W4","name":"CNRL NBP20-1A SANDY 1-21-82-20","lic":"344633","st":"PUMP","fl":"CR-BIT","lat":56.091607,"lon":-113.043852},{"id":"1-22-82-19W4","name":"CNRL NBP38-1B DEADM 1-22-82-19","lic":"390995","st":"N/A","fl":"WATER","lat":56.091607,"lon":-112.861936},{"id":"1-22-82-19W4","name":"CNRL NBP38-1A 102 DEADM 1-22-82-19","lic":"414081","st":"SUSP","fl":"CR-BIT","lat":56.091607,"lon":-112.861936},{"id":"1-22-82-21W4","name":"CNRL NBP8-1A BRINT 1-22-82-21","lic":"301197","st":"PUMP","fl":"CR-BIT","lat":56.091607,"lon":-113.173793},{"id":"1-22-82-23W4","name":"CNRL SW25-1C BRINTNELL 1-22-82-23","lic":"515662","st":"PUMP","fl":"CR-BIT","lat":56.091607,"lon":-113.485649},{"id":"1-23-79-22W4","name":"CNRL PRP6-3A-C PEERLESS 1-23-79-22","lic":"440777","st":"ABDWHP","fl":"N/A","lat":55.830633,"lon":-113.281532},{"id":"1-23-79-23W4","name":"CNRL PEERLESS 1-23-79-23","lic":"267586","st":"ABZONE","fl":"N/A","lat":55.830633,"lon":-113.436413},{"id":"1-23-81-22W4","name":"CNRL BP99-8B BRINT 1-23-81-22","lic":"391333","st":"SUSP","fl":"CR-BIT","lat":56.004616,"lon":-113.296292},{"id":"1-23-82-21W4","name":"CNRL NBP10-1B BRINT 1-23-82-21","lic":"304557","st":"PUMP","fl":"CR-BIT","lat":56.091607,"lon":-113.147805},{"id":"1-23-82-21W4","name":"CNRL NBP10-1A BRINT 1-23-82-21","lic":"304559","st":"PUMP","fl":"CR-BIT","lat":56.091607,"lon":-113.147805},{"id":"1-23-82-23W4","name":"CNRL NHP10-8A BRINT 1-23-82-23","lic":"368861","st":"PUMP","fl":"CR-BIT","lat":56.091607,"lon":-113.459661},{"id":"1-24-79-22W4","name":"CNRL PRP1-1B PEERLESS 1-24-79-22","lic":"430350","st":"PUMP","fl":"CR-BIT","lat":55.830633,"lon":-113.255719},{"id":"1-24-79-22W4","name":"CNRL PRP1-1A-RD PEERLESS 1-24-79-22","lic":"447435","st":"PUMP","fl":"CR-BIT","lat":55.830633,"lon":-113.255719},{"id":"1-24-81-23W4","name":"CNRL CNRL WBP36-1D  BRINT 1-24-81-23","lic":"413506","st":"N/A","fl":"WATER","lat":56.004616,"lon":-113.425939},{"id":"1-24-82-20W4","name":"CNRL NBP28-1A SANDY 9-24-82-20","lic":"368794","st":"N/A","fl":"WATER","lat":56.091607,"lon":-112.965888},{"id":"1-24-82-20W4","name":"CNRL NBP28-1B SANDY 16-24-82-20","lic":"368798","st":"N/A","fl":"WATER","lat":56.091607,"lon":-112.965888},{"id":"1-24-82-20W4","name":"CNRL NBP28-1A 103 SANDY 1-24-82-20","lic":"392742","st":"PUMP","fl":"CR-BIT","lat":56.091607,"lon":-112.965888},{"id":"1-24-82-21W4","name":"CNRL NBP12-1B BRINT 1-24-82-21","lic":"328019","st":"PUMP","fl":"CR-BIT","lat":56.091607,"lon":-113.121816},{"id":"1-24-82-21W4","name":"CNRL NBP13-1A BRINT 1-24-82-21","lic":"329295","st":"PUMP","fl":"CR-BIT","lat":56.091607,"lon":-113.121816},{"id":"1-25-77-26W4","name":"CNRL MCMULLEN 1-25-77-26","lic":"148082","st":"SUSP","fl":"GAS","lat":55.671149,"lon":-113.858002},{"id":"1-25-80-23W4","name":"CNRL SBP51-1B 103 BRINT 1-25-80-23","lic":"420360","st":"PUMP","fl":"CR-BIT","lat":55.932123,"lon":-113.418248},{"id":"1-25-80-23W4","name":"CNRL SBP50-1A-W BRINT 1-25-80-23","lic":"430908","st":"PUMP","fl":"CR-BIT","lat":55.932123,"lon":-113.418248},{"id":"1-26-80-21W4","name":"CNRL CBP13-1B BARNEY 1-35-80-21","lic":"349092","st":"SUSP","fl":"CR-BIT","lat":55.932123,"lon":-113.133664},{"id":"1-26-80-21W4","name":"CNRL CBP13-1B2 RE BARNEY 1-26-80-21","lic":"349093","st":"N/A","fl":"N/A","lat":55.932123,"lon":-113.133664},{"id":"1-26-80-23W4","name":"CNRL SBP53-1B BRINT 1-26-80-23","lic":"335008","st":"PUMP","fl":"CR-BIT","lat":55.932123,"lon":-113.44412},{"id":"1-27-81-22W4","name":"CNRL HTLP6-1D BRINT 1-27-81-22","lic":"416405","st":"N/A","fl":"WATER","lat":56.019115,"lon":-113.322221},{"id":"1-27-81-22W4","name":"CNRL BP21-1C BRINT 1-27-81-22","lic":"481774","st":"PUMP","fl":"CR-BIT","lat":56.019115,"lon":-113.322221},{"id":"1-27-84-25W4","name":"CNRL GDLP1-1D GOODLOW 1-27-84-25","lic":"506556","st":"PUMP","fl":"CR-BIT","lat":56.280089,"lon":-113.814756},{"id":"1-28-79-21W4","name":"CNRL SLP9-1B PEERLESS 1-28-79-21","lic":"415125","st":"PUMP","fl":"CR-BIT","lat":55.845132,"lon":-113.178279},{"id":"1-28-80-21W4","name":"CNRL CBP10-1B BARNEY 1-28-80-21","lic":"352085","st":"PUMP","fl":"CR-BIT","lat":55.932123,"lon":-113.185406},{"id":"1-28-81-22W4","name":"CNRL HTLP5-1D BRINT 1-28-81-22","lic":"417287","st":"N/A","fl":"WATER","lat":56.019115,"lon":-113.348151},{"id":"1-29-78-24W4","name":"CNRL 1C HZ PELICAN 1-29-78-24","lic":"523058","st":"N/A","fl":"N/A","lat":55.758141,"lon":-113.660551},{"id":"1-29-80-20W4","name":"CNRL CBP26-1D BARNEY 1-29-80-20","lic":"386251","st":"PUMP","fl":"CR-BIT","lat":55.932123,"lon":-113.05605},{"id":"1-29-80-21W4","name":"CNRL CBP8-1B BARNEY 9-29-80-21","lic":"352532","st":"PUMP","fl":"CR-BIT","lat":55.932123,"lon":-113.211278},{"id":"1-29-81-22W4","name":"CNRL HTLP3-1C BRINT 1-29-81-22","lic":"362448","st":"PUMP","fl":"CR-BIT","lat":56.019115,"lon":-113.37408},{"id":"1-3-81-22W4","name":"CNRL BP25-1B BRINT 1-3-81-22","lic":"421038","st":"N/A","fl":"WATER","lat":55.96112,"lon":-113.322221},{"id":"1-3-83-20W4","name":"CNRL NW01-1B SANDY 1-3-83-20","lic":"508674","st":"PUMP","fl":"CR-BIT","lat":56.135103,"lon":-113.024699},{"id":"1-30-80-21W4","name":"CNRL CBP7-1A BARNEY 1-30-80-21","lic":"351073","st":"PUMP","fl":"CR-BIT","lat":55.932123,"lon":-113.237149},{"id":"1-30-80-21W4","name":"CNRL CBP7-1B BARNEY 1-30-80-21","lic":"392989","st":"PUMP","fl":"CR-BIT","lat":55.932123,"lon":-113.237149},{"id":"1-30-80-21W4","name":"CNRL CBP7-1A BARNEY 1-30-80-21","lic":"392988","st":"PUMP","fl":"CR-BIT","lat":55.932123,"lon":-113.237149},{"id":"1-30-81-22W4","name":"CNRL HTLP2-1A BRINT 1-30-81-22","lic":"360216","st":"PUMP","fl":"CR-BIT","lat":56.019115,"lon":-113.40001},{"id":"1-30-82-20W4","name":"CNRL NBP15-1A SANDY 1-30-82-20","lic":"334980","st":"N/A","fl":"N/A","lat":56.106106,"lon":-113.095828},{"id":"1-34-80-21W4","name":"CNRL CBP12-1B BARNEY 1-34-80-21","lic":"352012","st":"N/A","fl":"N/A","lat":55.946622,"lon":-113.159535},{"id":"1-34-82-21W4","name":"CNRL NBP7-16C BRINT 1-34-82-21","lic":"300115","st":"SUSP","fl":"CR-BIT","lat":56.120605,"lon":-113.173793},{"id":"1-34-83-20W4","name":"CNRL SANDY 1-34-83-20","lic":"416491","st":"ABD","fl":"N/A","lat":56.207596,"lon":-113.024699},{"id":"1-35-80-21W4","name":"CNRL CBP13-1B BARNEY 1-35-80-21","lic":"349092","st":"N/A","fl":"N/A","lat":55.946622,"lon":-113.133664},{"id":"1-35-81-23W4","name":"CNRL BRINT 1-35-81-23","lic":"431901","st":"ABD","fl":"N/A","lat":56.033613,"lon":-113.451869},{"id":"1-36-78-23W4","name":"CNRL DWP10-1D PEERLESS 1-36-78-23","lic":"517694","st":"PUMP","fl":"CR-BIT","lat":55.772639,"lon":-113.402993},{"id":"1-36-78-23W4","name":"CNRL DWP09 EI1 PEERLESS 1-36-78-23","lic":"521946","st":"DRL&C","fl":"N/A","lat":55.772639,"lon":-113.402993},{"id":"1-36-80-22W4","name":"CNRL SWD BRINT 1-36-80-22","lic":"429642","st":"N/A","fl":"WATER","lat":55.946622,"lon":-113.26302},{"id":"1-36-80-22W4","name":"CNRL WSW BRINT 1-36-80-22","lic":"429643","st":"SUSP","fl":"WATER","lat":55.946622,"lon":-113.26302},{"id":"1-4-82-22W4","name":"CNRL NHP5-1B RD BRINT 1-4-82-22","lic":"491686","st":"PUMP","fl":"CR-BIT","lat":56.048112,"lon":-113.355709},{"id":"1-4-83-20W4","name":"CNRL NW03-1A RE SANDY 1-4-83-20","lic":"467143","st":"PUMP","fl":"CR-BIT","lat":56.135103,"lon":-113.050746},{"id":"1-5-82-22W4","name":"CNRL NHP3A-1A BRINT 1-5-82-22","lic":"413866","st":"N/A","fl":"WATER","lat":56.048112,"lon":-113.381697},{"id":"1-5-82-22W4","name":"CNRL NHP3B-1A-E RD BRINT 1-5-82-22","lic":"458555","st":"PUMP","fl":"CR-BIT","lat":56.048112,"lon":-113.381697},{"id":"1-5-82-22W4","name":"CNRL NHP3B-1A-W RD BRINT 1-5-82-22","lic":"458556","st":"PUMP","fl":"CR-BIT","lat":56.048112,"lon":-113.381697},{"id":"1-6-79-22W4","name":"CNRL DWP11 EI3 PEERLESS 1-6-79-22","lic":"522647","st":"N/A","fl":"N/A","lat":55.787138,"lon":-113.384786},{"id":"1-6-79-22W4","name":"CNRL DWP11 EP3 PEERLESS 1-6-79-22","lic":"523134","st":"N/A","fl":"N/A","lat":55.787138,"lon":-113.384786},{"id":"1-6-81-20W4","name":"CNRL CBP31-5B-N JOLI FOU 1-6-81-20","lic":"438766","st":"DRL&C","fl":"N/A","lat":55.96112,"lon":-113.088856},{"id":"1-7-81-21W4","name":"CNRL CBP7-1A BRINT 1-7-81-21","lic":"351181","st":"PUMP","fl":"CR-BIT","lat":55.975619,"lon":-113.244433},{"id":"1-7-81-21W4","name":"CNRL CBP7-1B BRINT 1-7-81-21","lic":"392979","st":"SUSP","fl":"CR-BIT","lat":55.975619,"lon":-113.244433},{"id":"1-8-80-21W4","name":"CNRL CBP16-1D BARNEY 4-9-80-21","lic":"339427","st":"N/A","fl":"N/A","lat":55.888628,"lon":-113.211278},{"id":"1-8-81-21W4","name":"CNRL CBP8-1B BRINT 1-8-81-21","lic":"352535","st":"PUMP","fl":"CR-BIT","lat":55.975619,"lon":-113.218503},{"id":"1-8-81-23W4","name":"CNRL WBP51-1B BRINT 1-8-81-23","lic":"407597","st":"SUSP","fl":"CR-BIT","lat":55.975619,"lon":-113.529658},{"id":"1-9-80-21W4","name":"CNRL CBP18-1C BARNEY 1-9-80-21","lic":"357895","st":"PUMP","fl":"CR-BIT","lat":55.888628,"lon":-113.185406},{"id":"1-9-81-21W4","name":"CNRL CBP10-1B BRINT 1-9-81-21","lic":"352090","st":"PUMP","fl":"CR-BIT","lat":55.975619,"lon":-113.192574},{"id":"1-9-83-20W4","name":"CNRL NW03 P09N SANDY 1-9-83-20","lic":"467173","st":"ABD","fl":"N/A","lat":56.149602,"lon":-113.050746},{"id":"1-9-83-20W4","name":"CNRL NW03 P11N SANDY 1-9-83-20","lic":"467174","st":"DRL&C","fl":"N/A","lat":56.149602,"lon":-113.050746},{"id":"1-9-83-20W4","name":"CNRL NW03 I08N SANDY 1-9-83-20","lic":"467125","st":"ABD","fl":"N/A","lat":56.149602,"lon":-113.050746},{"id":"10-1-79-21W4","name":"CNRL PEERLESS 10-1-79-21","lic":"430750","st":"ABD","fl":"N/A","lat":55.794387,"lon":-113.107292},{"id":"10-1-80-21W4","name":"CNRL BARNEY 10-1-80-21","lic":"430787","st":"ABD","fl":"N/A","lat":55.881378,"lon":-113.11426},{"id":"10-10-77-25W4","name":"CNRL MARTENH 10-10-77-25","lic":"209641","st":"SUSP","fl":"GAS","lat":55.634903,"lon":-113.761632},{"id":"10-12-81-22W4","name":"CNRL BP100-10A BRINT 10-12-81-22","lic":"393468","st":"SUSP","fl":"CR-BIT","lat":55.982868,"lon":-113.276845},{"id":"10-13-80-23W4","name":"CNRL WSW 103 BRINT 10-13-80-23","lic":"343200","st":"N/A","fl":"N/A","lat":55.910375,"lon":-113.424716},{"id":"10-14-81-23W4","name":"CNRL WBP24-10D BRINT 10-14-81-23","lic":"412617","st":"N/A","fl":"WATER","lat":55.997367,"lon":-113.458351},{"id":"10-15-79-22W4","name":"CNRL PRP4-11B PEERLESS 10-15-79-22","lic":"354808","st":"PUMP","fl":"CR-BIT","lat":55.823384,"lon":-113.313799},{"id":"10-16-80-22W4","name":"CNRL SBP32 WSW BRINT 10-16-80-22","lic":"479104","st":"N/A","fl":"N/A","lat":55.910375,"lon":-113.347102},{"id":"10-16-82-20W4","name":"CNRL SANDY 10-16-82-20","lic":"198395","st":"ABD","fl":"N/A","lat":56.084358,"lon":-113.050349},{"id":"10-16-82-21W4","name":"CNRL BRINT 10-16-82-21","lic":"197251","st":"ABD","fl":"N/A","lat":56.084358,"lon":-113.206278},{"id":"10-16-82-23W4","name":"CNRL NHP17-12C BRINT 10-16-82-23","lic":"418480","st":"N/A","fl":"N/A","lat":56.084358,"lon":-113.518134},{"id":"10-17-79-20W4","name":"CNRL BARNEY 10-17-79-20","lic":"430233","st":"ABD","fl":"N/A","lat":55.823384,"lon":-113.055665},{"id":"10-17-81-19W4","name":"CNRL SANDY 10-17-81-19","lic":"417736","st":"ABD","fl":"N/A","lat":55.997367,"lon":-112.913831},{"id":"10-17-81-23W4","name":"CNRL WBP49-7C BRINT 10-17-81-23","lic":"352657","st":"PUMP","fl":"CR-BIT","lat":55.997367,"lon":-113.53614},{"id":"10-18-80-20W4","name":"CNRL BARNEY 10-18-80-20","lic":"68332","st":"ABD","fl":"N/A","lat":55.910375,"lon":-113.088389},{"id":"10-18-82-23W4","name":"CNRL NHP17-10C BRINT 10-18-82-23","lic":"418477","st":"PUMP","fl":"CR-BIT","lat":56.084358,"lon":-113.570111},{"id":"10-18-82-23W4","name":"CNRL NHP17-10B BRINT  10-18-82-23","lic":"418478","st":"N/A","fl":"WATER","lat":56.084358,"lon":-113.570111},{"id":"10-18-82-23W4","name":"CNRL NHP17-10C-N BRINT  10-18-82-23","lic":"430803","st":"N/A","fl":"WATER","lat":56.084358,"lon":-113.570111},{"id":"10-19-77-25W4","name":"CNRL MCMULLEN 10-19-77-25","lic":"52657","st":"ABD","fl":"GAS","lat":55.6639,"lon":-113.838728},{"id":"10-20-80-20W4","name":"CNRL BRNP3-13C BARNEY 10-20-80-20","lic":"520332","st":"N/A","fl":"N/A","lat":55.924874,"lon":-113.062518},{"id":"10-20-81-23W4","name":"CNRL WBP13-10B BRINT 10-20-81-23","lic":"343441","st":"PUMP","fl":"CR-BIT","lat":56.011865,"lon":-113.53614},{"id":"10-20-81-23W4","name":"CNRL WBP12-10C BRINT 10-20-81-23","lic":"454041","st":"PUMP","fl":"CR-BIT","lat":56.011865,"lon":-113.53614},{"id":"10-21-80-22W4","name":"CNRL SBP32-10C BRINT 10-21-80-22","lic":"486338","st":"PUMP","fl":"CR-BIT","lat":55.924874,"lon":-113.347102},{"id":"10-21-81-24W4","name":"CNRL HOOLE 10-21-81-24","lic":"132020","st":"ABD","fl":"N/A","lat":56.011865,"lon":-113.665788},{"id":"10-22-81-19W4","name":"CNRL SANDY 10-22-81-19","lic":"417393","st":"ABD","fl":"N/A","lat":56.011865,"lon":-112.861972},{"id":"10-23-81-22W4","name":"CNRL BP17-10B BRINT 10-23-81-22","lic":"420528","st":"N/A","fl":"WATER","lat":56.011865,"lon":-113.302774},{"id":"10-24-77-26W4","name":"CNRL MCMULLEN 10-24-77-26","lic":"143425","st":"SUSP","fl":"GAS","lat":55.6639,"lon":-113.864427},{"id":"10-24-81-24W4","name":"CNRL HOOLE 10-24-81-24","lic":"197213","st":"ABD","fl":"N/A","lat":56.011865,"lon":-113.587999},{"id":"10-24-84-25W4","name":"CNRL GOODLOW 10-24-84-25","lic":"450334","st":"SUSP","fl":"CR-BIT","lat":56.272839,"lon":-113.76907},{"id":"10-25-80-21W4","name":"CNRL CBP27-12C BARNEY 10-25-80-21","lic":"367937","st":"N/A","fl":"N/A","lat":55.939373,"lon":-113.11426},{"id":"10-26-80-21W4","name":"CNRL CBP13-2B RE BARNEY 10-26-80-21","lic":"349094","st":"N/A","fl":"N/A","lat":55.939373,"lon":-113.140132},{"id":"10-26-82-20W4","name":"CNRL SANDY 10-26-82-20","lic":"183740","st":"SUSP","fl":"GAS","lat":56.113355,"lon":-112.998373},{"id":"10-27-80-20W4","name":"CNRL BARNEY 10-27-80-20","lic":"220825","st":"ABD","fl":"N/A","lat":55.939373,"lon":-113.010775},{"id":"10-27-80-23W4","name":"CNRL BRINT 10-27-80-23","lic":"318387","st":"ABD","fl":"N/A","lat":55.939373,"lon":-113.476459},{"id":"10-27-83-23W4","name":"CNRL HOOLE 10-27-83-23","lic":"395033","st":"ABD","fl":"N/A","lat":56.200347,"lon":-113.500056},{"id":"10-27-84-25W4","name":"CNRL GOODLOW 10-27-84-25","lic":"450494","st":"PUMP","fl":"CR-BIT","lat":56.287338,"lon":-113.821282},{"id":"10-27-84-25W4","name":"CNRL GDLP2-10A GOODLOW 10-27-84-25","lic":"506634","st":"PUMP","fl":"CR-BIT","lat":56.287338,"lon":-113.821282},{"id":"10-27-84-25W4","name":"CNRL GDLP2-10B GOODLOW 10-27-84-25","lic":"506635","st":"PUMP","fl":"CR-BIT","lat":56.287338,"lon":-113.821282},{"id":"10-28-81-20W4","name":"CNRL CBP43-10D JOLI FOU 10-28-81-20","lic":"367913","st":"PUMP","fl":"CR-BIT","lat":56.026364,"lon":-113.043479},{"id":"10-28-82-19W4","name":"CNRL DEADMAN 10-28-82-19","lic":"194297","st":"ABD","fl":"N/A","lat":56.113355,"lon":-112.894421},{"id":"10-28-84-23W4","name":"CNRL WOODENHOUSE 10-28-84-23","lic":"404493","st":"SUSP","fl":"CR-BIT","lat":56.287338,"lon":-113.534115},{"id":"10-29-78-24W4","name":"CNRL PELICAN 10-29-78-24","lic":"322457","st":"SUSP","fl":"CR-BIT","lat":55.76539,"lon":-113.66699},{"id":"10-29-82-22W4","name":"CNRL BRINT 10-29-82-22","lic":"194511","st":"ABD","fl":"N/A","lat":56.113355,"lon":-113.388194},{"id":"10-29-83-19W4","name":"CNRL GRANOR 10-29-83-19","lic":"88576","st":"ABD","fl":"N/A","lat":56.200347,"lon":-112.927023},{"id":"10-3-81-22W4","name":"CNRL ATHA 10-3-81-22","lic":"105085","st":"ABD","fl":"CR-BIT","lat":55.96837,"lon":-113.328704},{"id":"10-3-85-23W4","name":"CNRL WOODENH 10-3-85-23","lic":"417458","st":"SUSP","fl":"CR-BIT","lat":56.316335,"lon":-113.516006},{"id":"10-30-78-23W4","name":"CNRL PELICAN 10-30-78-23","lic":"463422","st":"DRL&C","fl":"N/A","lat":55.76539,"lon":-113.538211},{"id":"10-30-79-24W4","name":"CNRL PELICAN 10-30-79-24","lic":"31532","st":"ABD","fl":"N/A","lat":55.852381,"lon":-113.701},{"id":"10-30-81-23W4","name":"CNRL BRINT 10-30-81-23","lic":"368235","st":"DRL&C","fl":"N/A","lat":56.026364,"lon":-113.56207},{"id":"10-30-84-23W4","name":"CNRL WOODENHOUSE 10-30-84-23","lic":"404508","st":"SUSP","fl":"CR-BIT","lat":56.287338,"lon":-113.586327},{"id":"10-31-78-24W4","name":"CNRL PELICAN 10-31-78-24","lic":"322440","st":"SUSP","fl":"CR-BIT","lat":55.779888,"lon":-113.692746},{"id":"10-32-79-21W4","name":"CNRL PEERLESS 10-32-79-21","lic":"74046","st":"ABD","fl":"N/A","lat":55.86688,"lon":-113.210545},{"id":"10-32-80-22W4","name":"CNRL SBP4-10C BRINT 10-32-80-22","lic":"391304","st":"N/A","fl":"WATER","lat":55.953871,"lon":-113.372973},{"id":"10-32-81-19W4","name":"CNRL SANDY 10-32-81-19","lic":"417530","st":"ABD","fl":"N/A","lat":56.040863,"lon":-112.913831},{"id":"10-32-81-24W4","name":"CNRL HOOLE 10-32-81-24","lic":"29994","st":"ABD","fl":"N/A","lat":56.040863,"lon":-113.691717},{"id":"10-32-82-20W4","name":"CNRL NBP17-15C SANDY 10-32-82-20","lic":"341142","st":"N/A","fl":"N/A","lat":56.127854,"lon":-113.076337},{"id":"10-32-82-21W4","name":"CNRL NBP3-15D BRINT 10-32-82-21","lic":"375112","st":"N/A","fl":"N/A","lat":56.127854,"lon":-113.232266},{"id":"10-32-84-23W4","name":"CNRL WOODENHOUSE 10-32-84-23","lic":"415281","st":"SUSP","fl":"CR-BIT","lat":56.301837,"lon":-113.560221},{"id":"10-32-84-23W4","name":"CNRL 102 WOODENHOUSE 10-32-84-23","lic":"416642","st":"SUSP","fl":"CR-BIT","lat":56.301837,"lon":-113.560221},{"id":"10-33-78-24W4","name":"CNRL WILP6-10D PELICAN 10-33-78-24","lic":"480950","st":"DRL&C","fl":"N/A","lat":55.779888,"lon":-113.641234},{"id":"10-34-77-24W4","name":"CNRL PELICAN 10-34-77-24","lic":"44551","st":"ABD","fl":"N/A","lat":55.692897,"lon":-113.607441},{"id":"10-34-79-21W4","name":"CNRL SLP12-10C PEERLESS 10-34-79-21","lic":"521218","st":"N/A","fl":"N/A","lat":55.86688,"lon":-113.158918},{"id":"10-34-81-20W4","name":"CNRL JOLI FOU 10-34-81-20","lic":"350660","st":"DRL&C","fl":"N/A","lat":56.040863,"lon":-113.017549},{"id":"10-35-81-23W4","name":"CNRL BRINT 10-35-81-23","lic":"431902","st":"ABD","fl":"N/A","lat":56.040863,"lon":-113.458351},{"id":"10-36-81-22W4","name":"CNRL BP20-10C BRINT 10-36-81-22","lic":"419450","st":"N/A","fl":"WATER","lat":56.040863,"lon":-113.276845},{"id":"10-36-81-22W4","name":"CNRL BP20-10B BRINT 10-36-81-22","lic":"419451","st":"N/A","fl":"WATER","lat":56.040863,"lon":-113.276845},{"id":"10-36-82-21W4","name":"CNRL NBP 12-15C BRINT 10-36-82-21","lic":"328017","st":"N/A","fl":"N/A","lat":56.127854,"lon":-113.128313},{"id":"10-4-77-24W4","name":"CNRL HZ MARTENH 10-4-77-24","lic":"516803","st":"N/A","fl":"N/A","lat":55.620404,"lon":-113.633139},{"id":"10-4-77-24W4","name":"CNRL HZ 102 MARTENH 10-4-77-24","lic":"516804","st":"N/A","fl":"N/A","lat":55.620404,"lon":-113.633139},{"id":"10-4-77-24W4","name":"CNRL HZ 103 MARTENH 10-4-77-24","lic":"516805","st":"N/A","fl":"N/A","lat":55.620404,"lon":-113.633139},{"id":"10-4-80-22W4","name":"CNRL SBP43-10C BRINT 10-4-80-22","lic":"351808","st":"PUMP","fl":"CR-BIT","lat":55.881378,"lon":-113.347102},{"id":"10-4-81-23W4","name":"CNRL WBP45-10B BRINT 10-4-81-23","lic":"333716","st":"PUMP","fl":"CR-BIT","lat":55.96837,"lon":-113.51021},{"id":"10-4-82-22W4","name":"CNRL NHP6-10D BRINT 10-4-82-22","lic":"229186","st":"N/A","fl":"WATER","lat":56.055361,"lon":-113.362206},{"id":"10-4-84-19W4","name":"CNRL GRANOR 10-4-84-19","lic":"263599","st":"ABZONE","fl":"N/A","lat":56.229344,"lon":-112.907568},{"id":"10-5-80-21W4","name":"CNRL CBP3-12A-S BARNEY 10-5-80-21","lic":"428015","st":"ABDWHP","fl":"N/A","lat":55.881378,"lon":-113.217746},{"id":"10-5-82-19W4","name":"CNRL DEADM 10-5-82-19","lic":"346353","st":"DRL&C","fl":"N/A","lat":56.055361,"lon":-112.920409},{"id":"10-5-82-22W4","name":"CNRL NHP1-15C RD BRINT 10-5-82-22","lic":"483218","st":"N/A","fl":"N/A","lat":56.055361,"lon":-113.388194},{"id":"10-5-85-23W4","name":"CNRL WOODENH 10-5-85-23","lic":"404494","st":"ABD","fl":"N/A","lat":56.316335,"lon":-113.568338},{"id":"10-6-79-22W4","name":"CNRL DWP11 EP1 PEERLESS 10-6-79-22","lic":"523127","st":"N/A","fl":"N/A","lat":55.794387,"lon":-113.391239},{"id":"10-6-81-24W4","name":"CNRL HOOLE 10-6-81-24","lic":"31810","st":"ABD","fl":"N/A","lat":55.96837,"lon":-113.717647},{"id":"10-6-82-23W4","name":"CNRL NHP14-10B BRINT 10-6-82-23","lic":"396091","st":"PUMP","fl":"CR-BIT","lat":56.055361,"lon":-113.570111},{"id":"10-6-82-23W4","name":"CNRL NHP14-10C BRINT 10-6-82-23","lic":"396114","st":"PUMP","fl":"CR-BIT","lat":56.055361,"lon":-113.570111},{"id":"10-7-79-20W4","name":"CNRL BARNEY 10-7-79-20","lic":"430234","st":"ABD","fl":"N/A","lat":55.808886,"lon":-113.081478},{"id":"10-7-82-23W4","name":"CNRL NHP16-10C BRINT 10-7-82-23","lic":"363836","st":"PUMP","fl":"CR-BIT","lat":56.06986,"lon":-113.570111},{"id":"10-9-81-20W4","name":"CNRL EBP8-10D JOLI FOU 10-9-81-20","lic":"405463","st":"SUSP","fl":"CR-BIT","lat":55.982868,"lon":-113.043479},{"id":"10-9-83-22W4","name":"CNRL GERMAIN 10-9-83-22","lic":"393263","st":"ABD","fl":"N/A","lat":56.156851,"lon":-113.369821},{"id":"11-1-79-23W4","name":"CNRL DWP13 EM1 PEERLESS 11-1-79-23","lic":"521862","st":"N/A","fl":"N/A","lat":55.794387,"lon":-113.423506},{"id":"11-1-79-23W4","name":"CNRL DWP11 WSW PEERLESS 11-1-79-23","lic":"523143","st":"N/A","fl":"N/A","lat":55.794387,"lon":-113.423506},{"id":"11-1-81-23W4","name":"CNRL WBP46-11D BRINT 11-1-81-23","lic":"394669","st":"PUMP","fl":"CR-BIT","lat":55.96837,"lon":-113.438904},{"id":"11-1-82-20W4","name":"CNRL SANDY 11-1-82-20","lic":"347465","st":"DRL&C","fl":"N/A","lat":56.055361,"lon":-112.978882},{"id":"11-11-81-22W4","name":"CNRL BRINT 11-11-81-22","lic":"80139","st":"ABD","fl":"N/A","lat":55.982868,"lon":-113.309257},{"id":"11-12-80-23W4","name":"CNRL SBP40-3B BRINT 11-12-80-23","lic":"327795","st":"PUMP","fl":"CR-BIT","lat":55.895877,"lon":-113.431184},{"id":"11-12-81-22W4","name":"CNRL BP101-11C BRINT 11-12-81-22","lic":"420356","st":"SUSP","fl":"CR-BIT","lat":55.982868,"lon":-113.283327},{"id":"11-13-81-21W4","name":"CNRL CBP39-12D BRINT 11-13-81-21","lic":"343854","st":"SUSP","fl":"CR-BIT","lat":55.997367,"lon":-113.12775},{"id":"11-14-82-21W4","name":"CNRL BRINT 11-14-82-21","lic":"197263","st":"ABD","fl":"N/A","lat":56.084358,"lon":-113.160799},{"id":"11-15-79-22W4","name":"CNRL PRP4-11C PEERLESS 11-15-79-22","lic":"354809","st":"PUMP","fl":"CR-BIT","lat":55.823384,"lon":-113.320252},{"id":"11-15-80-20W4","name":"CNRL BRNP3-11A BARNEY 11-15-80-20","lic":"390787","st":"ABD","fl":"CR-BIT","lat":55.910375,"lon":-113.017243},{"id":"11-15-82-20W4","name":"CNRL NBP47-12B SANDY 9-15-82-20","lic":"354389","st":"N/A","fl":"N/A","lat":56.084358,"lon":-113.030858},{"id":"11-15-82-23W4","name":"CNRL NHP12-14A BRINT 11-15-82-23","lic":"424989","st":"N/A","fl":"N/A","lat":56.084358,"lon":-113.498643},{"id":"11-16-78-24W4","name":"CNRL PELICAN 11-16-78-24","lic":"322458","st":"ABD","fl":"N/A","lat":55.736393,"lon":-113.647673},{"id":"11-16-81-20W4","name":"CNRL CBP39-11D JOLI FOU 11-17-81-20","lic":"343868","st":"PUMP","fl":"CR-BIT","lat":55.997367,"lon":-113.049961},{"id":"11-16-82-19W4","name":"CNRL DEADM 11-16-82-19","lic":"343563","st":"DRL&C","fl":"N/A","lat":56.084358,"lon":-112.900918},{"id":"11-16-82-23W4","name":"CNRL NHP17-12B BRINT 11-16-82-23","lic":"418479","st":"N/A","fl":"N/A","lat":56.084358,"lon":-113.524632},{"id":"11-17-81-20W4","name":"CNRL CBP39-11D JOLI FOU 11-17-81-20","lic":"343868","st":"N/A","fl":"N/A","lat":55.997367,"lon":-113.075891},{"id":"11-17-82-23W4","name":"CNRL STR BRINTNELL 11-17-82-23","lic":"301967","st":"ABD","fl":"N/A","lat":56.084358,"lon":-113.55062},{"id":"11-18-77-23W4","name":"CNRL PELICAN 11-18-77-23","lic":"250723","st":"SUSP","fl":"GAS","lat":55.649401,"lon":-113.53677},{"id":"11-18-82-21W4","name":"CNRL SE05-11B BRINT 11-18-82-21","lic":"496880","st":"PUMP","fl":"CR-BIT","lat":56.084358,"lon":-113.264751},{"id":"11-19-80-21W4","name":"CNRL CBP14-12D BARNEY 11-19-80-21","lic":"350579","st":"N/A","fl":"N/A","lat":55.924874,"lon":-113.250085},{"id":"11-2-79-21W4","name":"CNRL PEERLESS 11-2-79-21","lic":"429580","st":"ABD","fl":"N/A","lat":55.794387,"lon":-113.139558},{"id":"11-20-79-21W4","name":"CNRL PEERLESS 11-20-79-21","lic":"210470","st":"ABD","fl":"N/A","lat":55.837883,"lon":-113.216999},{"id":"11-20-80-20W4","name":"CNRL BARNEY 11-20-80-20","lic":"232610","st":"ABD","fl":"N/A","lat":55.924874,"lon":-113.068985},{"id":"11-20-81-21W4","name":"CNRL BRINT 11-20-81-21","lic":"350175","st":"DRL&C","fl":"N/A","lat":56.011865,"lon":-113.231468},{"id":"11-20-81-23W4","name":"CNRL WBP50-14D BRINT 11-20-81-23","lic":"407670","st":"N/A","fl":"N/A","lat":56.011865,"lon":-113.542622},{"id":"11-21-79-21W4","name":"CNRL SLP7-3B 10 PEERLESS 11-21-79-21","lic":"413807","st":"N/A","fl":"N/A","lat":55.837883,"lon":-113.191185},{"id":"11-21-81-20W4","name":"CNRL CBP41-11A JOLI FOU 11-21-81-20","lic":"353426","st":"PUMP","fl":"CR-BIT","lat":56.011865,"lon":-113.049961},{"id":"11-22-79-22W4","name":"CNRL PRP7-11A PEERLESS 11-22-79-22","lic":"391162","st":"N/A","fl":"WATER","lat":55.837883,"lon":-113.320252},{"id":"11-22-79-22W4","name":"CNRL PRP7-11D PEERLESS 9-22-79-22","lic":"391165","st":"N/A","fl":"WATER","lat":55.837883,"lon":-113.320252},{"id":"11-22-79-22W4","name":"CNRL PRP7-11A-N PEERLESS 11-22-79-22","lic":"440805","st":"PUMP","fl":"CR-BIT","lat":55.837883,"lon":-113.320252},{"id":"11-23-80-20W4","name":"CNRL BARNEY 11-23-80-20","lic":"231028","st":"ABZONE","fl":"N/A","lat":55.924874,"lon":-112.991371},{"id":"11-23-82-23W4","name":"CNRL  11-23-82-23","lic":"196773","st":"ABD","fl":"N/A","lat":56.098857,"lon":-113.472655},{"id":"11-24-80-21W4","name":"CNRL BARNEY 11-24-80-21","lic":"220823","st":"ABD","fl":"N/A","lat":55.924874,"lon":-113.120728},{"id":"11-24-81-21W4","name":"CNRL CBP41-12D BRINT 11-24-81-21","lic":"353428","st":"PUMP","fl":"CR-BIT","lat":56.011865,"lon":-113.12775},{"id":"11-24-81-22W4","name":"CNRL BRINT 11-24-81-22","lic":"210464","st":"ABD","fl":"N/A","lat":56.011865,"lon":-113.283327},{"id":"11-24-84-25W4","name":"CNRL UNO-TEX MUSKWA 11-24-84-25","lic":"35565","st":"ABD","fl":"N/A","lat":56.272839,"lon":-113.775596},{"id":"11-25-77-26W4","name":"CNRL MCMULLEN 11-25-77-26","lic":"147377","st":"ABD","fl":"N/A","lat":55.678399,"lon":-113.870851},{"id":"11-25-81-21W4","name":"CNRL CBP43-11C BRINT 9-25-81-21","lic":"367916","st":"PUMP","fl":"CR-BIT","lat":56.026364,"lon":-113.12775},{"id":"11-26-77-25W4","name":"CNRL MARTENH 11-26-77-25","lic":"438958","st":"SUSP","fl":"CR-BIT","lat":55.678399,"lon":-113.742358},{"id":"11-26-79-21W4","name":"CNRL SLP11-14C2 PEERLESS 11-26-79-21","lic":"521160","st":"N/A","fl":"N/A","lat":55.852381,"lon":-113.139558},{"id":"11-26-80-21W4","name":"CNRL CBP13-3A BARNEY 11-26-80-21","lic":"349094","st":"N/A","fl":"N/A","lat":55.939373,"lon":-113.146599},{"id":"11-26-82-20W4","name":"CNRL WSW SANDY 11-26-82-20","lic":"396403","st":"SUSP","fl":"WATER","lat":56.113355,"lon":-113.00487},{"id":"11-26-82-21W4","name":"CNRL NBP9 BRINT 11-26-82-21","lic":"304792","st":"SUSP","fl":"WATER","lat":56.113355,"lon":-113.160799},{"id":"11-26-84-25W4","name":"CNRL GDLP1-6C GOODLOW 11-26-84-25","lic":"506553","st":"PUMP","fl":"CR-BIT","lat":56.287338,"lon":-113.801703},{"id":"11-27-77-25W4","name":"CNRL MCMULLEN 11-27-77-25","lic":"151591","st":"SUSP","fl":"GAS","lat":55.678399,"lon":-113.768057},{"id":"11-27-79-22W4","name":"CNRL PRP2-11A PEERLESS 11-27-79-22","lic":"395042","st":"SUSP","fl":"CR-BIT","lat":55.852381,"lon":-113.320252},{"id":"11-27-81-23W4","name":"CNRL WBP15-11A BRINT 11-27-81-23","lic":"455108","st":"N/A","fl":"WATER","lat":56.026364,"lon":-113.490763},{"id":"11-27-81-23W4","name":"CNRL WBP15-11C BRINT 11-27-81-23","lic":"455109","st":"N/A","fl":"WATER","lat":56.026364,"lon":-113.490763},{"id":"11-27-84-25W4","name":"CNRL GDLP2-10C GOODLOW 11-27-84-25","lic":"506636","st":"PUMP","fl":"CR-BIT","lat":56.287338,"lon":-113.827809},{"id":"11-27-84-25W4","name":"CNRL 11A GOODLOW 11-27-84-25","lic":"522348","st":"N/A","fl":"N/A","lat":56.287338,"lon":-113.827809},{"id":"11-27-84-25W4","name":"CNRL 11B GOODLOW 11-27-84-25","lic":"522349","st":"N/A","fl":"N/A","lat":56.287338,"lon":-113.827809},{"id":"11-27-84-25W4","name":"CNRL 11C GOODLOW 11-27-84-25","lic":"522350","st":"N/A","fl":"N/A","lat":56.287338,"lon":-113.827809},{"id":"11-3-79-21W4","name":"CNRL PEERLESS 11-3-79-21","lic":"429578","st":"ABD","fl":"N/A","lat":55.794387,"lon":-113.165372},{"id":"11-3-81-22W4","name":"CNRL ATHA 11-3-81-22","lic":"120777","st":"ABD","fl":"CR-BIT","lat":55.96837,"lon":-113.335186},{"id":"11-3-85-23W4","name":"CNRL WOODENH 11-3-85-23","lic":"404509","st":"SUSP","fl":"CR-BIT","lat":56.316335,"lon":-113.522548},{"id":"11-3-85-23W4","name":"CNRL 102 WOODENH 11-3-85-23","lic":"417459","st":"SUSP","fl":"CR-BIT","lat":56.316335,"lon":-113.522548},{"id":"11-30-77-25W4","name":"CNRL MCMULLEN 11-30-77-25","lic":"48898","st":"ABD","fl":"N/A","lat":55.678399,"lon":-113.845153},{"id":"11-30-78-22W4","name":"CNRL DWP09 EI3 DRIFTW 11-30-78-22","lic":"521939","st":"DRL&C","fl":"N/A","lat":55.76539,"lon":-113.390115},{"id":"11-30-78-22W4","name":"CNRL DWP09 EP3 DRIFTW 11-30-78-22","lic":"521949","st":"DRL&C","fl":"N/A","lat":55.76539,"lon":-113.390115},{"id":"11-31-78-24W4","name":"CNRL PELICAN 11-31-78-24","lic":"449850","st":"SUSP","fl":"CR-BIT","lat":55.779888,"lon":-113.699185},{"id":"11-31-78-24W4","name":"CNRL 102 PELICAN 11-31-78-24","lic":"449851","st":"SUSP","fl":"CR-BIT","lat":55.779888,"lon":-113.699185},{"id":"11-31-82-21W4","name":"CNRL NBP1-14C BRINT 11-31-82-21","lic":"364588","st":"N/A","fl":"N/A","lat":56.127854,"lon":-113.264751},{"id":"11-32-78-24W4","name":"CNRL 102 PELICAN 11-32-78-24","lic":"449830","st":"SUSP","fl":"CR-BIT","lat":55.779888,"lon":-113.673429},{"id":"11-32-78-24W4","name":"CNRL 103 PELICAN 11-32-78-24","lic":"449831","st":"SUSP","fl":"CR-BIT","lat":55.779888,"lon":-113.673429},{"id":"11-32-82-21W4","name":"CNRL NBP2-14C BRINT 14-32-82-21","lic":"364593","st":"N/A","fl":"N/A","lat":56.127854,"lon":-113.238763},{"id":"11-32-84-23W4","name":"CNRL 102 WOODENHOUSE 11-32-84-23","lic":"415280","st":"SUSP","fl":"CR-BIT","lat":56.301837,"lon":-113.566748},{"id":"11-32-84-24W4","name":"CNRL GOODLOW  11-32-84-24","lic":"428667","st":"DRL&C","fl":"N/A","lat":56.301837,"lon":-113.723384},{"id":"11-33-80-20W4","name":"CNRL CBP30-14A BARNEY 11-33-80-20","lic":"324052","st":"PUMP","fl":"CR-BIT","lat":55.953871,"lon":-113.043114},{"id":"11-33-80-20W4","name":"CNRL CBP29-11A BARNEY 11-33-80-20","lic":"389717","st":"PUMP","fl":"CR-BIT","lat":55.953871,"lon":-113.043114},{"id":"11-34-77-26W4","name":"CNRL MARTENH 11-34-77-26","lic":"33471","st":"ABD","fl":"GAS","lat":55.692897,"lon":-113.922249},{"id":"11-34-80-23W4","name":"CNRL SBP53-12B BRINT 11-34-80-23","lic":"335011","st":"PUMP","fl":"CR-BIT","lat":55.953871,"lon":-113.482927},{"id":"11-34-81-19W4","name":"CNRL SANDY 11-34-81-19","lic":"417469","st":"ABD","fl":"N/A","lat":56.040863,"lon":-112.868455},{"id":"11-36-78-24W4","name":"CNRL WILP23-11C PELICAN 11-36-78-24","lic":"481625","st":"DRL&C","fl":"N/A","lat":55.779888,"lon":-113.570406},{"id":"11-4-81-20W4","name":"CNRL CBP32-11D JOLI FOU 14-4-81-20","lic":"324055","st":"N/A","fl":"N/A","lat":55.96837,"lon":-113.049961},{"id":"11-4-81-20W4","name":"CNRL CBP32-11A JOLI FOU 6-4-81-20","lic":"324056","st":"N/A","fl":"N/A","lat":55.96837,"lon":-113.049961},{"id":"11-4-81-22W4","name":"CNRL BP25A 11A BRINT 11-4-81-22","lic":"424967","st":"N/A","fl":"WATER","lat":55.96837,"lon":-113.361116},{"id":"11-4-82-19W4","name":"CNRL SANDY 11-4-82-19","lic":"417682","st":"ABD","fl":"N/A","lat":56.055361,"lon":-112.900918},{"id":"11-5-81-22W4","name":"CNRL WBP42-11D BRINT 11-5-81-22","lic":"420780","st":"N/A","fl":"WATER","lat":55.96837,"lon":-113.387045},{"id":"11-6-79-21W4","name":"CNRL PEERLESS 11-6-79-21","lic":"211879","st":"ABD","fl":"N/A","lat":55.794387,"lon":-113.242812},{"id":"11-7-80-20W4","name":"CNRL BRNP3-11B BARNEY 11-7-80-20","lic":"520333","st":"DRL&C","fl":"N/A","lat":55.895877,"lon":-113.094857},{"id":"11-7-80-20W4","name":"CNRL BRNP3-13D BARNEY 11-7-80-20","lic":"520334","st":"N/A","fl":"N/A","lat":55.895877,"lon":-113.094857},{"id":"11-7-82-22W4","name":"CNRL BRINT 11-7-82-22","lic":"195318","st":"ABD","fl":"N/A","lat":56.06986,"lon":-113.420679},{"id":"11-8-81-19W4","name":"CNRL 102 GOPHER 11-8-81-19","lic":"232517","st":"ABD","fl":"N/A","lat":55.982868,"lon":-112.920314},{"id":"11-8-81-23W4","name":"CNRL WBP50-11C BRINT 11-8-81-23","lic":"407671","st":"SUSP","fl":"CR-BIT","lat":55.982868,"lon":-113.542622},{"id":"11-8-81-23W4","name":"CNRL WBP50-11D BRINT 11-8-81-23","lic":"407672","st":"SUSP","fl":"CR-BIT","lat":55.982868,"lon":-113.542622},{"id":"11-9-81-23W4","name":"CNRL WABASCA 11-9-81-23","lic":"61845","st":"ABD","fl":"GAS","lat":55.982868,"lon":-113.516693},{"id":"12-1-81-21W4","name":"CNRL CBP32-12B BRINT 5-1-81-21","lic":"324057","st":"N/A","fl":"N/A","lat":55.96837,"lon":-113.134232},{"id":"12-1-81-22W4","name":"CNRL BP99-5D BRINT 12-1-81-22","lic":"391329","st":"SUSP","fl":"CR-BIT","lat":55.96837,"lon":-113.289809},{"id":"12-1-81-23W4","name":"CNRL WSW BRINT 12-1-81-23","lic":"419819","st":"SUSP","fl":"WATER","lat":55.96837,"lon":-113.445387},{"id":"12-10-82-20W4","name":"CNRL NBP50-12C SANDY 12-10-82-20","lic":"354449","st":"SUSP","fl":"CR-BIT","lat":56.06986,"lon":-113.037355},{"id":"12-10-82-23W4","name":"CNRL NHP16-12C BRINT 12-10-82-23","lic":"363837","st":"PUMP","fl":"CR-BIT","lat":56.06986,"lon":-113.50514},{"id":"12-10-82-23W4","name":"CNRL NHP15-12B BRINT 12-10-82-23","lic":"373788","st":"PUMP","fl":"CR-BIT","lat":56.06986,"lon":-113.50514},{"id":"12-12-81-23W4","name":"CNRL WBP37-12B BRINT 12-12-81-23","lic":"463550","st":"N/A","fl":"WATER","lat":55.982868,"lon":-113.445387},{"id":"12-14-80-22W4","name":"CNRL WSW BRINT 12-14-80-22","lic":"394666","st":"SUSP","fl":"WATER","lat":55.910375,"lon":-113.308295},{"id":"12-15-80-22W4","name":"CNRL SBP31 WSW BRINT 12-15-80-22","lic":"479107","st":"N/A","fl":"N/A","lat":55.910375,"lon":-113.334166},{"id":"12-15-81-22W4","name":"CNRL BP17 BRINT 12-15-81-22","lic":"482802","st":"PUMP","fl":"CR-BIT","lat":55.997367,"lon":-113.341668},{"id":"12-15-81-22W4","name":"CNRL BP5-12B BRINT 12-15-81-22","lic":"482843","st":"PUMP","fl":"CR-BIT","lat":55.997367,"lon":-113.341668},{"id":"12-15-82-20W4","name":"CNRL NBP47-12B SANDY 9-15-82-20","lic":"354389","st":"PUMP","fl":"CR-BIT","lat":56.084358,"lon":-113.037355},{"id":"12-15-82-23W4","name":"CNRL NHP17-12B BRINT 12-15-82-23","lic":"418479","st":"N/A","fl":"WATER","lat":56.084358,"lon":-113.50514},{"id":"12-15-82-23W4","name":"CNRL NHP17-12C BRINT 12-15-82-23","lic":"418480","st":"PUMP","fl":"CR-BIT","lat":56.084358,"lon":-113.50514},{"id":"12-15-82-23W4","name":"CNRL NHP17-12C-N BRINT  12-15-82-23","lic":"430801","st":"N/A","fl":"WATER","lat":56.084358,"lon":-113.50514},{"id":"12-17-80-22W4","name":"CNRL CHEVRON BRINT 12-17-80-22","lic":"207492","st":"PUMP","fl":"CR-BIT","lat":55.910375,"lon":-113.385909},{"id":"12-18-80-21W4","name":"CNRL CBP16-12C BARNEY 12-18-80-21","lic":"322983","st":"PUMP","fl":"CR-BIT","lat":55.910375,"lon":-113.256553},{"id":"12-18-82-19W4","name":"CNRL NBP47-12A DEADM 12-18-82-19","lic":"354387","st":"PUMP","fl":"CR-BIT","lat":56.084358,"lon":-112.959391},{"id":"12-19-77-25W4","name":"CNRL MCMULLEN 12-19-77-25","lic":"321865","st":"SUSP","fl":"GAS","lat":55.6639,"lon":-113.851577},{"id":"12-19-80-20W4","name":"CNRL BARNEY 12-19-80-20","lic":"210461","st":"ABD","fl":"N/A","lat":55.924874,"lon":-113.101325},{"id":"12-19-80-21W4","name":"CNRL CBP14-12D BARNEY 6-19-80-21","lic":"350579","st":"PUMP","fl":"CR-BIT","lat":55.924874,"lon":-113.256553},{"id":"12-20-82-19W4","name":"CNRL DEADMAN 12-20-82-19","lic":"183650","st":"ABD","fl":"N/A","lat":56.098857,"lon":-112.933403},{"id":"12-21-80-22W4","name":"CNRL SBP33-12B BRINT 12-21-80-22","lic":"491320","st":"PUMP","fl":"CR-BIT","lat":55.924874,"lon":-113.360038},{"id":"12-22-80-22W4","name":"CNRL SBP32-12C BRINT 12-22-80-22","lic":"486339","st":"PUMP","fl":"CR-BIT","lat":55.924874,"lon":-113.334166},{"id":"12-24-82-21W4","name":"CNRL NBP11-4A BRINT 12-24-82-21","lic":"328820","st":"N/A","fl":"N/A","lat":56.098857,"lon":-113.141308},{"id":"12-25-80-21W4","name":"CNRL CBP27-12C BARNEY 10-25-80-21","lic":"367937","st":"PUMP","fl":"CR-BIT","lat":55.939373,"lon":-113.127196},{"id":"12-25-82-21W4","name":"CNRL NBP11 BRINT 12-25-82-21","lic":"306599","st":"N/A","fl":"N/A","lat":56.113355,"lon":-113.141308},{"id":"12-26-77-25W4","name":"CNRL HZ MARTENH 12-26-77-25","lic":"514626","st":"N/A","fl":"N/A","lat":55.678399,"lon":-113.748783},{"id":"12-26-77-26W4","name":"CNRL MCMULLEN 12-26-77-26","lic":"147268","st":"ABZONE","fl":"N/A","lat":55.678399,"lon":-113.902975},{"id":"12-26-79-21W4","name":"CNRL SLP11-14C3 PEERLESS 12-26-79-21","lic":"521161","st":"N/A","fl":"N/A","lat":55.852381,"lon":-113.146012},{"id":"12-26-80-21W4","name":"CNRL CBP12-4B BARNEY 12-26-80-21","lic":"352011","st":"N/A","fl":"N/A","lat":55.939373,"lon":-113.153067},{"id":"12-26-84-25W4","name":"CNRL GDLP1-12A GOODLOW 12-26-84-25","lic":"506554","st":"PUMP","fl":"CR-BIT","lat":56.287338,"lon":-113.808229},{"id":"12-26-84-25W4","name":"CNRL GDLP1-12B GOODLOW 12-26-84-25","lic":"506555","st":"PUMP","fl":"CR-BIT","lat":56.287338,"lon":-113.808229},{"id":"12-27-77-25W4","name":"CNRL HZ MARTENH 12-27-77-25","lic":"514626","st":"SUSP","fl":"CR-BIT","lat":55.678399,"lon":-113.774482},{"id":"12-27-78-23W4","name":"CNRL DWP09 WM2 DRIFTW 12-27-78-23","lic":"521950","st":"N/A","fl":"N/A","lat":55.76539,"lon":-113.473821},{"id":"12-27-82-21W4","name":"CNRL NBP6 BRINT 12-27-82-21","lic":"303530","st":"ABZONE","fl":"WATER","lat":56.113355,"lon":-113.193284},{"id":"12-27-82-26W4","name":"CNRL HOOLE 12-27-82-26","lic":"304324","st":"ABD","fl":"N/A","lat":56.113355,"lon":-113.972926},{"id":"12-27-83-19W4","name":"CNRL GRANOR 12-27-83-19","lic":"211667","st":"ABD","fl":"N/A","lat":56.200347,"lon":-112.887953},{"id":"12-27-84-25W4","name":"CNRL 12A GOODLOW 12-27-84-25","lic":"522351","st":"N/A","fl":"N/A","lat":56.287338,"lon":-113.834335},{"id":"12-28-82-20W4","name":"CNRL NBP18-13C SANDY 12-28-82-20","lic":"342654","st":"ABDWHP","fl":"N/A","lat":56.113355,"lon":-113.063343},{"id":"12-28-84-21W4","name":"CNRL GERMAIN 12-28-84-21","lic":"428860","st":"ABD","fl":"N/A","lat":56.287338,"lon":-113.233895},{"id":"12-28-84-23W4","name":"CNRL WOODENHOUSE 12-28-84-23","lic":"415277","st":"SUSP","fl":"CR-BIT","lat":56.287338,"lon":-113.547168},{"id":"12-3-80-21W4","name":"CNRL CBP3-12A-S BARNEY 12-3-80-21","lic":"428015","st":"PUMP","fl":"CR-BIT","lat":55.881378,"lon":-113.178939},{"id":"12-3-80-21W4","name":"CNRL CBP3-12D BARNEY 12-3-80-21","lic":"448226","st":"PUMP","fl":"CR-BIT","lat":55.881378,"lon":-113.178939},{"id":"12-3-82-20W4","name":"CNRL NBP51-12C SANDY 12-3-82-20","lic":"368419","st":"SUSP","fl":"CR-BIT","lat":56.055361,"lon":-113.037355},{"id":"12-3-82-20W4","name":"CNRL NBP52-12B SANDY 9-3-82-20","lic":"368434","st":"PUMP","fl":"CR-BIT","lat":56.055361,"lon":-113.037355},{"id":"12-3-82-23W4","name":"CNRL NHP14-12B BRINT 12-3-82-23","lic":"396089","st":"PUMP","fl":"CR-BIT","lat":56.055361,"lon":-113.50514},{"id":"12-3-82-23W4","name":"CNRL NHP14-12C BRINT 12-3-82-23","lic":"396113","st":"PUMP","fl":"CR-BIT","lat":56.055361,"lon":-113.50514},{"id":"12-3-85-23W4","name":"CNRL 103 WOODENH 12-3-85-23","lic":"417301","st":"SUSP","fl":"CR-BIT","lat":56.316335,"lon":-113.529089},{"id":"12-3-85-23W4","name":"CNRL WOODENH 12-3-85-23","lic":"417300","st":"SUSP","fl":"CR-BIT","lat":56.316335,"lon":-113.529089},{"id":"12-30-80-21W4","name":"CNRL STR BARNEY 12-30-80-21","lic":"303958","st":"ABD","fl":"N/A","lat":55.939373,"lon":-113.256553},{"id":"12-30-80-21W4","name":"CNRL CBP7A-4A BARNEY 12-30-80-21","lic":"393608","st":"N/A","fl":"N/A","lat":55.939373,"lon":-113.256553},{"id":"12-31-78-24W4","name":"CNRL PELICAN 12-31-78-24","lic":"449852","st":"SUSP","fl":"CR-BIT","lat":55.779888,"lon":-113.705624},{"id":"12-31-78-24W4","name":"CNRL 102 PELICAN 12-31-78-24","lic":"449853","st":"PUMP","fl":"CR-BIT","lat":55.779888,"lon":-113.705624},{"id":"12-31-78-24W4","name":"CNRL 103 PELICAN 12-31-78-24","lic":"449854","st":"SUSP","fl":"CR-BIT","lat":55.779888,"lon":-113.705624},{"id":"12-31-81-19W4","name":"CNRL EBP1-12A GOPHER 12-31-81-19","lic":"368136","st":"SUSP","fl":"CR-BIT","lat":56.040863,"lon":-112.952726},{"id":"12-31-81-19W4","name":"CNRL EBP1-12D GOPHER 12-31-81-19","lic":"368137","st":"SUSP","fl":"CR-BIT","lat":56.040863,"lon":-112.952726},{"id":"12-31-82-21W4","name":"CNRL NBP1-13C-W BRINT 12-31-82-21","lic":"453638","st":"N/A","fl":"N/A","lat":56.127854,"lon":-113.271248},{"id":"12-32-78-24W4","name":"CNRL PELICAN 12-32-78-24","lic":"438060","st":"SUSP","fl":"CR-BIT","lat":55.779888,"lon":-113.679868},{"id":"12-32-78-24W4","name":"CNRL 102 PELICAN 12-32-78-24","lic":"449827","st":"SUSP","fl":"CR-BIT","lat":55.779888,"lon":-113.679868},{"id":"12-32-78-24W4","name":"CNRL 103 PELICAN 12-32-78-24","lic":"449828","st":"SUSP","fl":"CR-BIT","lat":55.779888,"lon":-113.679868},{"id":"12-32-78-24W4","name":"CNRL 104 PELICAN 12-32-78-24","lic":"449829","st":"SUSP","fl":"CR-BIT","lat":55.779888,"lon":-113.679868},{"id":"12-32-80-21W4","name":"CNRL WSW BARNEY 12-32-80-21","lic":"441184","st":"N/A","fl":"N/A","lat":55.953871,"lon":-113.230681},{"id":"12-32-80-22W4","name":"CNRL WBP42-12B BRINT 12-32-80-22","lic":"463360","st":"PUMP","fl":"CR-BIT","lat":55.953871,"lon":-113.385909},{"id":"12-32-84-23W4","name":"CNRL 102 WOODENHOUSE 12-32-84-23","lic":"415279","st":"SUSP","fl":"CR-BIT","lat":56.301837,"lon":-113.573274},{"id":"12-32-84-23W4","name":"CNRL LVP1-12B GERMAIN 12-32-84-23","lic":"430796","st":"SUSP","fl":"CR-BIT","lat":56.301837,"lon":-113.573274},{"id":"12-33-84-24W4","name":"CNRL GOODLOW 12-33-84-24","lic":"415634","st":"DRL&C","fl":"N/A","lat":56.301837,"lon":-113.703805},{"id":"12-34-78-23W4","name":"CNRL DWP10-12C PEERLESS 12-34-78-23","lic":"514224","st":"N/A","fl":"N/A","lat":55.779888,"lon":-113.473821},{"id":"12-34-78-23W4","name":"CNRL DWP10-12B PEERLESS 12-34-78-23","lic":"514221","st":"N/A","fl":"N/A","lat":55.779888,"lon":-113.473821},{"id":"12-34-81-20W4","name":"CNRL EBP1-12B JOLI FOU 12-34-81-20","lic":"368139","st":"SUSP","fl":"CR-BIT","lat":56.040863,"lon":-113.030514},{"id":"12-34-81-20W4","name":"CNRL EBP1-12C JOLI FOU 13-35-81-20","lic":"368140","st":"SUSP","fl":"CR-BIT","lat":56.040863,"lon":-113.030514},{"id":"12-34-82-21W4","name":"CNRL NBP6-13D BRINT 12-34-82-21","lic":"301190","st":"N/A","fl":"N/A","lat":56.127854,"lon":-113.193284},{"id":"12-35-82-21W4","name":"CNRL NBP8-13C BRINT 12-35-82-21","lic":"209767","st":"N/A","fl":"N/A","lat":56.127854,"lon":-113.167296},{"id":"12-36-80-21W4","name":"CNRL CBP30-13B BARNEY 12-36-80-21","lic":"324050","st":"PUMP","fl":"CR-BIT","lat":55.953871,"lon":-113.127196},{"id":"12-36-80-21W4","name":"CNRL CBP29-12B BARNEY 12-36-80-21","lic":"389718","st":"PUMP","fl":"CR-BIT","lat":55.953871,"lon":-113.127196},{"id":"12-4-79-23W4","name":"CNRL DWP13 WM1 PELICAN 12-4-79-23","lic":"520744","st":"N/A","fl":"N/A","lat":55.794387,"lon":-113.5074},{"id":"12-4-82-22W4","name":"CNRL NHP3B-12C BRINT 12-4-82-22","lic":"459558","st":"N/A","fl":"WATER","lat":56.055361,"lon":-113.3752},{"id":"12-4-82-22W4","name":"CNRL NHP3B-12D BRINT 12-4-82-22","lic":"459559","st":"N/A","fl":"WATER","lat":56.055361,"lon":-113.3752},{"id":"12-6-80-21W4","name":"CNRL CBP3-12D BARNEY 12-6-80-21","lic":"428010","st":"PUMP","fl":"CR-BIT","lat":55.881378,"lon":-113.256553},{"id":"12-6-80-21W4","name":"CNRL CBP3-12B BARNEY 12-6-80-21","lic":"428011","st":"PUMP","fl":"CR-BIT","lat":55.881378,"lon":-113.256553},{"id":"12-6-82-19W4","name":"CNRL NBP51-12D DEADM 12-6-82-19","lic":"368415","st":"SUSP","fl":"CR-BIT","lat":56.055361,"lon":-112.959391},{"id":"12-6-82-19W4","name":"CNRL NBP52-12A DEADM 12-6-82-19","lic":"368431","st":"PUMP","fl":"CR-BIT","lat":56.055361,"lon":-112.959391},{"id":"12-7-80-21W4","name":"CNRL CBP5-12B BARNEY 12-7-80-21","lic":"429935","st":"PUMP","fl":"CR-BIT","lat":55.895877,"lon":-113.256553},{"id":"12-7-80-21W4","name":"CNRL CBP5-12C BARNEY 12-7-80-21","lic":"429936","st":"PUMP","fl":"CR-BIT","lat":55.895877,"lon":-113.256553},{"id":"12-7-81-19W4","name":"CNRL EBP8-12C SANDY 12-7-81-19","lic":"405462","st":"SUSP","fl":"CR-BIT","lat":55.982868,"lon":-112.952726},{"id":"12-7-82-19W4","name":"CNRL NBP50-12D DEADM 12-7-82-19","lic":"354447","st":"PUMP","fl":"CR-BIT","lat":56.06986,"lon":-112.959391},{"id":"12-8-80-20W4","name":"CNRL BARNEY 12-8-80-20","lic":"210463","st":"ABD","fl":"N/A","lat":55.895877,"lon":-113.075453},{"id":"12-8-81-22W4","name":"CNRL BP3-12D-W BRINT 12-8-81-22","lic":"463683","st":"PUMP","fl":"CR-BIT","lat":55.982868,"lon":-113.393528},{"id":"12-9-81-22W4","name":"CNRL BP11-12C BRINT 12-9-81-22","lic":"433099","st":"PUMP","fl":"CR-BIT","lat":55.982868,"lon":-113.367598},{"id":"13-1-79-23W4","name":"CNRL DWP13 EM1 PEERLESS 13-1-79-23","lic":"521862","st":"N/A","fl":"N/A","lat":55.798012,"lon":-113.429959},{"id":"13-1-79-23W4","name":"CNRL DWP13 PEERLESS 13-1-79-23","lic":"521862","st":"N/A","fl":"N/A","lat":55.798012,"lon":-113.429959},{"id":"13-10-81-21W4","name":"CNRL BRINT 13-10-81-21","lic":"88437","st":"ABD","fl":"N/A","lat":55.986493,"lon":-113.186091},{"id":"13-10-81-22W4","name":"CNRL BP6A-13C BRINT 13-10-81-22","lic":"425218","st":"N/A","fl":"N/A","lat":55.986493,"lon":-113.341668},{"id":"13-10-81-22W4","name":"CNRL HZNTL BRINT 13-10-81-22","lic":"175551","st":"N/A","fl":"N/A","lat":55.986493,"lon":-113.341668},{"id":"13-10-82-20W4","name":"CNRL NBP49-13B SANDY 13-10-82-20","lic":"366056","st":"PUMP","fl":"CR-BIT","lat":56.073484,"lon":-113.037355},{"id":"13-10-82-23W4","name":"CNRL NHP16-13C BRINT 13-10-82-23","lic":"363838","st":"PUMP","fl":"CR-BIT","lat":56.073484,"lon":-113.50514},{"id":"13-12-81-21W4","name":"CNRL CBP38-13D BRINT 14-12-81-21","lic":"324036","st":"PUMP","fl":"CR-BIT","lat":55.986493,"lon":-113.134232},{"id":"13-13-78-23W4","name":"CNRL DWP27-WM1 DRIFTW 13-13-78-23","lic":"520388","st":"PUMP","fl":"CR-BIT","lat":55.740017,"lon":-113.422309},{"id":"13-13-81-21W4","name":"CNRL CBP44-13C  BRINT 13-13-81-21","lic":"414086","st":"SUSP","fl":"CR-BIT","lat":56.000991,"lon":-113.134232},{"id":"13-13-81-23W4","name":"CNRL WBP33-13C BRINT 13-13-81-23","lic":"413116","st":"N/A","fl":"WATER","lat":56.000991,"lon":-113.445387},{"id":"13-13-83-22W4","name":"CNRL GERMAIN 13-13-83-22","lic":"416443","st":"ABD","fl":"N/A","lat":56.174974,"lon":-113.304704},{"id":"13-14-80-22W4","name":"CNRL SBP28 5B BRINT 13-14-80-22","lic":"256497","st":"ABDWHP","fl":"N/A","lat":55.914,"lon":-113.308295},{"id":"13-15-77-25W4","name":"CNRL MARTENH 13-15-77-25","lic":"211306","st":"ABD","fl":"GAS","lat":55.653026,"lon":-113.774482},{"id":"13-15-82-20W4","name":"CNRL NBP47-13C SANDY 15-15-82-20","lic":"354390","st":"PUMP","fl":"CR-BIT","lat":56.087983,"lon":-113.037355},{"id":"13-15-82-23W4","name":"CNRL NHP12-13A BRINT 13-15-82-23","lic":"395989","st":"PUMP","fl":"CR-BIT","lat":56.087983,"lon":-113.50514},{"id":"13-15-82-23W4","name":"CNRL NHP17-13B BRINT  13-15-82-23","lic":"430802","st":"PUMP","fl":"CR-BIT","lat":56.087983,"lon":-113.50514},{"id":"13-15-83-19W4","name":"CNRL GRANOR 13-15-83-19","lic":"211670","st":"ABD","fl":"N/A","lat":56.174974,"lon":-112.887953},{"id":"13-15-83-21W4","name":"CNRL GERMAIN 13-15-83-21","lic":"322052","st":"ABD","fl":"N/A","lat":56.174974,"lon":-113.200516},{"id":"13-16-81-22W4","name":"CNRL BRINT 13-16-81-22","lic":"120782","st":"N/A","fl":"N/A","lat":56.000991,"lon":-113.367598},{"id":"13-16-82-22W4","name":"CNRL BRINT 13-16-82-22","lic":"194506","st":"ABD","fl":"N/A","lat":56.087983,"lon":-113.3752},{"id":"13-17-81-22W4","name":"CNRL BP4-13B BRINT 13-17-81-22","lic":"481135","st":"PUMP","fl":"CR-BIT","lat":56.000991,"lon":-113.393528},{"id":"13-18-79-21W4","name":"CNRL PRP4-14C PEERLESS 13-18-79-21","lic":"287044","st":"PUMP","fl":"CR-BIT","lat":55.827009,"lon":-113.249265},{"id":"13-18-80-21W4","name":"CNRL CBP16-13B BARNEY 14-18-80-21","lic":"322982","st":"PUMP","fl":"CR-BIT","lat":55.914,"lon":-113.256553},{"id":"13-18-81-22W4","name":"CNRL WBP36-13B BRINT 13-18-81-22","lic":"413505","st":"N/A","fl":"WATER","lat":56.000991,"lon":-113.419457},{"id":"13-18-82-19W4","name":"CNRL NBP47-13D SANDY 15-13-82-20","lic":"354388","st":"PUMP","fl":"CR-BIT","lat":56.087983,"lon":-112.959391},{"id":"13-19-80-21W4","name":"CNRL CBP14-13A BARNEY 13-19-80-21","lic":"350580","st":"N/A","fl":"N/A","lat":55.928499,"lon":-113.256553},{"id":"13-2-80-21W4","name":"CNRL SLP10A-13C BARNEY 13-2-80-21","lic":"408249","st":"PUMP","fl":"CR-BIT","lat":55.885003,"lon":-113.153067},{"id":"13-2-85-23W4","name":"CNRL WOODENH 13-2-85-23","lic":"415176","st":"SUSP","fl":"CR-BIT","lat":56.31996,"lon":-113.502924},{"id":"13-21-80-20W4","name":"CNRL BRNP3-13C BARNEY 13-21-80-20","lic":"520332","st":"DRL&C","fl":"N/A","lat":55.928499,"lon":-113.049582},{"id":"13-21-80-21W4","name":"CNRL CBP17-13D BARNEY 6-21-80-21","lic":"339690","st":"N/A","fl":"WATER","lat":55.928499,"lon":-113.20481},{"id":"13-21-80-21W4","name":"CNRL CBP16-16D BARNEY 13-21-80-21","lic":"339428","st":"PUMP","fl":"CR-BIT","lat":55.928499,"lon":-113.20481},{"id":"13-21-80-21W4","name":"CNRL CBP17-13D BARNEY 13-21-80-21","lic":"448649","st":"PUMP","fl":"CR-BIT","lat":55.928499,"lon":-113.20481},{"id":"13-22-77-25W4","name":"CNRL MCMULLEN 13-22-77-25","lic":"209640","st":"ABZONE","fl":"GAS","lat":55.667525,"lon":-113.774482},{"id":"13-22-80-21W4","name":"CNRL CBP19-13D BARNEY 13-22-80-21","lic":"355315","st":"PUMP","fl":"CR-BIT","lat":55.928499,"lon":-113.178939},{"id":"13-22-80-22W4","name":"CNRL SBP12-13B BRINT 13-22-80-22","lic":"485522","st":"PUMP","fl":"CR-BIT","lat":55.928499,"lon":-113.334166},{"id":"13-23-79-21W4","name":"CNRL SLP10A-13C PEERLESS 13-23-79-21","lic":"518781","st":"PUMP","fl":"CR-BIT","lat":55.841507,"lon":-113.146012},{"id":"13-23-80-21W4","name":"CNRL CBP21-13D BARNEY 5-14-80-21","lic":"345564","st":"PUMP","fl":"CR-BIT","lat":55.928499,"lon":-113.153067},{"id":"13-23-82-22W4","name":"CNRL SW 17 - 13B BRINT 13-23-82-22","lic":"499410","st":"PUMP","fl":"CR-BIT","lat":56.102481,"lon":-113.323224},{"id":"13-24-80-23W4","name":"CNRL SBP40-13D BRINT 13-24-80-23","lic":"327794","st":"N/A","fl":"N/A","lat":55.928499,"lon":-113.437652},{"id":"13-24-80-23W4","name":"CNRL SBP40-13D BRINT 13-24-80-23","lic":"327794","st":"PUMP","fl":"CR-BIT","lat":55.928499,"lon":-113.437652},{"id":"13-25-81-22W4","name":"CNRL BP102-13D BRINT 13-25-81-22","lic":"412909","st":"SUSP","fl":"CR-BIT","lat":56.029989,"lon":-113.289809},{"id":"13-25-81-22W4","name":"CNRL BP102-13C BRINT 13-25-81-22","lic":"423951","st":"SUSP","fl":"CR-BIT","lat":56.029989,"lon":-113.289809},{"id":"13-25-81-23W4","name":"CNRL WBP9-13D BRINT 13-25-81-23","lic":"182715","st":"PUMP","fl":"CR-BIT","lat":56.029989,"lon":-113.445387},{"id":"13-25-81-23W4","name":"CNRL WBP22-13C BRINT 13-25-81-23","lic":"373505","st":"N/A","fl":"WATER","lat":56.029989,"lon":-113.445387},{"id":"13-26-79-21W4","name":"CNRL SLP11-14C3 PEERLESS 13-26-79-21","lic":"521161","st":"N/A","fl":"N/A","lat":55.856006,"lon":-113.146012},{"id":"13-26-80-22W4","name":"CNRL WSW BRINT 13-26-80-22","lic":"394667","st":"ABD","fl":"WATER","lat":55.942997,"lon":-113.308295},{"id":"13-26-82-21W4","name":"CNRL NBP8-13D BRINT 13-26-82-21","lic":"301194","st":"N/A","fl":"N/A","lat":56.11698,"lon":-113.167296},{"id":"13-27-78-23W4","name":"CNRL DWP09 WI2 DRIFTW 13-27-78-23","lic":"521941","st":"DRL&C","fl":"N/A","lat":55.769015,"lon":-113.473821},{"id":"13-27-78-23W4","name":"CNRL DWP09 W13 DRIFTW 13-27-78-23","lic":"521940","st":"DRL&C","fl":"N/A","lat":55.769015,"lon":-113.473821},{"id":"13-27-78-23W4","name":"CNRL DWP09 WM1 DRIFTW 13-27-78-23","lic":"521957","st":"N/A","fl":"N/A","lat":55.769015,"lon":-113.473821},{"id":"13-27-80-21W4","name":"CNRL CBP10-4B BARNEY 13-27-80-21","lic":"352087","st":"N/A","fl":"N/A","lat":55.942997,"lon":-113.178939},{"id":"13-27-81-20W4","name":"CNRL EBP2-13C JOLI FOU 13-27-81-20","lic":"368365","st":"PUMP","fl":"CR-BIT","lat":56.029989,"lon":-113.030514},{"id":"13-27-81-22W4","name":"CNRL BP15-13C BRINT 13-27-81-22","lic":"453497","st":"PUMP","fl":"CR-BIT","lat":56.029989,"lon":-113.341668},{"id":"13-27-81-23W4","name":"CNRL WBP12-13B BRINT 13-27-81-23","lic":"454039","st":"N/A","fl":"WATER","lat":56.029989,"lon":-113.497246},{"id":"13-27-81-23W4","name":"CNRL WBP15-13D BRINT 13-27-81-23","lic":"455110","st":"N/A","fl":"WATER","lat":56.029989,"lon":-113.497246},{"id":"13-27-84-25W4","name":"CNRL GOODLOW 13-27-84-25","lic":"450726","st":"PUMP","fl":"CR-BIT","lat":56.290963,"lon":-113.834335},{"id":"13-28-80-22W4","name":"CNRL WSW BRINT 13-28-80-22","lic":"392784","st":"SUSP","fl":"WATER","lat":55.942997,"lon":-113.360038},{"id":"13-28-81-21W4","name":"CNRL BRINT 13-28-81-21","lic":"211951","st":"ABD","fl":"N/A","lat":56.029989,"lon":-113.212021},{"id":"13-28-81-23W4","name":"CNRL WBP11-13C-E BRINT 13-28-81-23","lic":"453741","st":"N/A","fl":"WATER","lat":56.029989,"lon":-113.523175},{"id":"13-28-81-23W4","name":"CNRL WBP11-13D-E BRINT 13-28-81-23","lic":"453742","st":"N/A","fl":"WATER","lat":56.029989,"lon":-113.523175},{"id":"13-29-81-22W4","name":"CNRL OBS 102 BRINT 13-29-81-22","lic":"336702","st":"N/A","fl":"N/A","lat":56.029989,"lon":-113.393528},{"id":"13-29-81-22W4","name":"CNRL WSW 103 BRINT 13-29-81-22","lic":"336703","st":"N/A","fl":"WATER","lat":56.029989,"lon":-113.393528},{"id":"13-3-80-21W4","name":"CNRL CBP3-13D BARNEY 13-3-80-21","lic":"428013","st":"N/A","fl":"WATER","lat":55.885003,"lon":-113.178939},{"id":"13-3-80-21W4","name":"CNRL CBP3-13A BARNEY 13-3-80-21","lic":"428012","st":"PUMP","fl":"CR-BIT","lat":55.885003,"lon":-113.178939},{"id":"13-3-82-20W4","name":"CNRL NBP51-13C SANDY 13-3-82-20","lic":"368420","st":"SUSP","fl":"CR-BIT","lat":56.058986,"lon":-113.037355},{"id":"13-3-82-23W4","name":"CNRL NHP14-13C BRINT 13-3-82-23","lic":"396090","st":"PUMP","fl":"CR-BIT","lat":56.058986,"lon":-113.50514},{"id":"13-3-85-23W4","name":"CNRL WOODENH 13-3-85-23","lic":"415914","st":"SUSP","fl":"CR-BIT","lat":56.31996,"lon":-113.529089},{"id":"13-3-85-23W4","name":"CNRL 102 WOODENH 13-3-85-23","lic":"417460","st":"SUSP","fl":"CR-BIT","lat":56.31996,"lon":-113.529089},{"id":"13-30-80-21W4","name":"CNRL SBP18-13C BARNEY 13-30-80-21","lic":"413802","st":"PUMP","fl":"CR-BIT","lat":55.942997,"lon":-113.256553},{"id":"13-30-81-19W4","name":"CNRL EBP2-13D GOPHER 13-30-81-19","lic":"368362","st":"SUSP","fl":"CR-BIT","lat":56.029989,"lon":-112.952726},{"id":"13-30-81-22W4","name":"CNRL WBP26-13C-W BRINT 13-30-81-22","lic":"483399","st":"N/A","fl":"WATER","lat":56.029989,"lon":-113.419457},{"id":"13-30-82-21W4","name":"CNRL BRINT 13-30-82-21","lic":"198227","st":"ABD","fl":"N/A","lat":56.11698,"lon":-113.271248},{"id":"13-31-78-24W4","name":"CNRL PELICAN 13-31-78-24","lic":"438001","st":"SUSP","fl":"CR-BIT","lat":55.783513,"lon":-113.705624},{"id":"13-31-78-24W4","name":"CNRL 102 PELICAN 13-31-78-24","lic":"449855","st":"SUSP","fl":"CR-BIT","lat":55.783513,"lon":-113.705624},{"id":"13-31-78-24W4","name":"CNRL 103 PELICAN 13-31-78-24","lic":"449856","st":"SUSP","fl":"CR-BIT","lat":55.783513,"lon":-113.705624},{"id":"13-31-81-19W4","name":"CNRL EBP1-13D GOPHER 13-31-81-19","lic":"368138","st":"PUMP","fl":"CR-BIT","lat":56.044487,"lon":-112.952726},{"id":"13-31-81-22W4","name":"CNRL HTLP1-13D BRINT 13-31-81-22","lic":"360367","st":"PUMP","fl":"CR-BIT","lat":56.044487,"lon":-113.419457},{"id":"13-31-81-22W4","name":"CNRL 103-HTLP1 13D BRINT 13-31-81-22","lic":"417394","st":"N/A","fl":"WATER","lat":56.044487,"lon":-113.419457},{"id":"13-31-82-19W4","name":"CNRL NBP29-13D DEADM 13-31-82-19","lic":"371813","st":"N/A","fl":"WATER","lat":56.131478,"lon":-112.959391},{"id":"13-31-82-19W4","name":"CNRL NBP28-13C DEADM 13-31-82-19","lic":"392748","st":"PUMP","fl":"CR-BIT","lat":56.131478,"lon":-112.959391},{"id":"13-31-82-20W4","name":"CNRL NBP13-13D SANDY 13-31-82-20","lic":"329293","st":"PUMP","fl":"CR-BIT","lat":56.131478,"lon":-113.115319},{"id":"13-31-82-21W4","name":"CNRL NBP1-13D BRINT 13-31-82-21","lic":"393992","st":"PUMP","fl":"CR-BIT","lat":56.131478,"lon":-113.271248},{"id":"13-31-82-21W4","name":"CNRL NBP1-13C-W BRINT 13-31-82-21","lic":"453638","st":"N/A","fl":"WATER","lat":56.131478,"lon":-113.271248},{"id":"13-31-84-24W4","name":"CNRL GOODLOW  13-31-84-24","lic":"428113","st":"ABD","fl":"N/A","lat":56.305461,"lon":-113.756017},{"id":"13-32-78-24W4","name":"CNRL PELICAN 13-32-78-24","lic":"449825","st":"SUSP","fl":"CR-BIT","lat":55.783513,"lon":-113.679868},{"id":"13-32-78-24W4","name":"CNRL 102 PELICAN 13-32-78-24","lic":"449826","st":"SUSP","fl":"CR-BIT","lat":55.783513,"lon":-113.679868},{"id":"13-32-79-21W4","name":"CNRL SLP3-13C PEERLESS 13-32-79-21","lic":"430434","st":"PUMP","fl":"CR-BIT","lat":55.870504,"lon":-113.223452},{"id":"13-32-79-21W4","name":"CNRL SLP4-13D-E PEERLESS 13-32-79-21","lic":"441155","st":"N/A","fl":"WATER","lat":55.870504,"lon":-113.223452},{"id":"13-32-79-21W4","name":"CNRL SLP4-13C PEERLESS 13-32-79-21","lic":"446506","st":"N/A","fl":"WATER","lat":55.870504,"lon":-113.223452},{"id":"13-32-79-21W4","name":"CNRL SLP4-13D-W PEERLESS 13-32-79-21","lic":"446507","st":"PUMP","fl":"CR-BIT","lat":55.870504,"lon":-113.223452},{"id":"13-32-80-22W4","name":"CNRL SBP3-13D BRINT 13-32-80-22","lic":"462792","st":"PUMP","fl":"CR-BIT","lat":55.957496,"lon":-113.385909},{"id":"13-32-81-22W4","name":"CNRL HTLP2-13C BRINT 13-32-81-22","lic":"360219","st":"PUMP","fl":"CR-BIT","lat":56.044487,"lon":-113.393528},{"id":"13-32-81-22W4","name":"CNRL HZ BRINT 13-32-81-22","lic":"195643","st":"N/A","fl":"WATER","lat":56.044487,"lon":-113.393528},{"id":"13-32-82-19W4","name":"CNRL NBP31-13C DEADM 13-32-82-19","lic":"351888","st":"PUMP","fl":"CR-BIT","lat":56.131478,"lon":-112.933403},{"id":"13-32-82-20W4","name":"CNRL NBP16-13D SANDY 13-32-82-20","lic":"334960","st":"PUMP","fl":"CR-BIT","lat":56.131478,"lon":-113.089331},{"id":"13-32-82-21W4","name":"CNRL NBP2-13C BRINT 5-32-82-21","lic":"364592","st":"N/A","fl":"WATER","lat":56.131478,"lon":-113.24526},{"id":"13-32-82-21W4","name":"CNRL NBP2-13D BRINT 13-32-82-21","lic":"381859","st":"PUMP","fl":"CR-BIT","lat":56.131478,"lon":-113.24526},{"id":"13-33-80-22W4","name":"CNRL SBP6-13C RE BRINT 13-33-80-22","lic":"238242","st":"N/A","fl":"WATER","lat":55.957496,"lon":-113.360038},{"id":"13-33-81-22W4","name":"CNRL HTLP4-13C BRINT 13-33-81-22","lic":"362383","st":"PUMP","fl":"CR-BIT","lat":56.044487,"lon":-113.367598},{"id":"13-33-81-22W4","name":"CNRL HTLP4-13D BRINT 13-33-81-22","lic":"362384","st":"PUMP","fl":"CR-BIT","lat":56.044487,"lon":-113.367598},{"id":"13-33-82-19W4","name":"CNRL NBP33-13C DEADM 13-33-82-19","lic":"370009","st":"PUMP","fl":"CR-BIT","lat":56.131478,"lon":-112.907415},{"id":"13-33-82-19W4","name":"CNRL NBP34-13D DEADM 13-33-82-19","lic":"384550","st":"N/A","fl":"WATER","lat":56.131478,"lon":-112.907415},{"id":"13-33-82-20W4","name":"CNRL NBP18-13C SANDY 12-28-82-20","lic":"342654","st":"ABD","fl":"CR-BIT","lat":56.131478,"lon":-113.063343},{"id":"13-33-82-20W4","name":"CNRL NBP18-13C RD SANDY 13-33-82-20","lic":"483033","st":"PUMP","fl":"CR-BIT","lat":56.131478,"lon":-113.063343},{"id":"13-34-78-23W4","name":"CNRL DWP10-13B PEERLESS 13-34-78-23","lic":"514222","st":"N/A","fl":"N/A","lat":55.783513,"lon":-113.473821},{"id":"13-34-78-23W4","name":"CNRL DWP10-13B2 PEERLESS 13-34-78-23","lic":"514223","st":"N/A","fl":"N/A","lat":55.783513,"lon":-113.473821},{"id":"13-34-80-22W4","name":"CNRL SBP12-16D BRINT 13-34-80-22","lic":"485524","st":"PUMP","fl":"CR-BIT","lat":55.957496,"lon":-113.334166},{"id":"13-34-80-23W4","name":"CNRL WBP44-13B BRINT 13-34-80-23","lic":"368282","st":"PUMP","fl":"CR-BIT","lat":55.957496,"lon":-113.489394},{"id":"13-34-81-20W4","name":"CNRL EBP1-13C JOLI FOU 13-35-81-20","lic":"368141","st":"SUSP","fl":"CR-BIT","lat":56.044487,"lon":-113.030514},{"id":"13-34-81-22W4","name":"CNRL HTLP5-13C BRINT 13-34-81-22","lic":"371955","st":"PUMP","fl":"CR-BIT","lat":56.044487,"lon":-113.341668},{"id":"13-34-82-19W4","name":"CNRL NBP36-13C 102 DEADM 13-34-82-19","lic":"393188","st":"N/A","fl":"WATER","lat":56.131478,"lon":-112.881427},{"id":"13-34-82-19W4","name":"CNRL NBP36-13D DEADM 13-34-82-19","lic":"393189","st":"PUMP","fl":"CR-BIT","lat":56.131478,"lon":-112.881427},{"id":"13-34-82-19W4","name":"CNRL NBP36-13C DEADM 13-34-82-19","lic":"393187","st":"PUMP","fl":"CR-BIT","lat":56.131478,"lon":-112.881427},{"id":"13-34-82-20W4","name":"CNRL NBP21-13C SANDY 13-34-82-20","lic":"357180","st":"PUMP","fl":"CR-BIT","lat":56.131478,"lon":-113.037355},{"id":"13-34-82-21W4","name":"CNRL NBP6-13D BRINT 12-34-82-21","lic":"301190","st":"PUMP","fl":"CR-BIT","lat":56.131478,"lon":-113.193284},{"id":"13-34-84-23W4","name":"CNRL WOODENHOUSE 13-34-84-23","lic":"404510","st":"SUSP","fl":"CR-BIT","lat":56.305461,"lon":-113.521062},{"id":"13-35-80-21W4","name":"CNRL CBP12-4B BARNEY 13-35-80-21","lic":"352015","st":"N/A","fl":"N/A","lat":55.957496,"lon":-113.153067},{"id":"13-35-80-21W4","name":"CNRL CBP12-4A BARNEY 13-35-80-21","lic":"352014","st":"N/A","fl":"N/A","lat":55.957496,"lon":-113.153067},{"id":"13-35-81-20W4","name":"CNRL EBP1-13C JOLI FOU 13-35-81-20","lic":"368141","st":"N/A","fl":"N/A","lat":56.044487,"lon":-113.004585},{"id":"13-35-81-20W4","name":"CNRL EBP1-12C JOLI FOU 13-35-81-20","lic":"368140","st":"N/A","fl":"N/A","lat":56.044487,"lon":-113.004585},{"id":"13-35-82-19W4","name":"CNRL NBP39-13C DEADM 13-35-82-19","lic":"415358","st":"N/A","fl":"WATER","lat":56.131478,"lon":-112.855439},{"id":"13-35-82-19W4","name":"CNRL NBP39-13D 102 DEADM 13-35-82-19","lic":"415623","st":"N/A","fl":"WATER","lat":56.131478,"lon":-112.855439},{"id":"13-35-82-21W4","name":"CNRL NBP8-13C BRINT 13-35-82-21","lic":"209767","st":"N/A","fl":"WATER","lat":56.131478,"lon":-113.167296},{"id":"13-35-82-21W4","name":"CNRL NBP8-13D BRINT 13-26-82-21","lic":"301194","st":"PUMP","fl":"CR-BIT","lat":56.131478,"lon":-113.167296},{"id":"13-36-79-22W4","name":"CNRL PRP2-13D PEERLESS 13-36-79-22","lic":"395046","st":"PUMP","fl":"CR-BIT","lat":55.870504,"lon":-113.275079},{"id":"13-36-80-21W4","name":"CNRL CBP30-13C BRINT 2-1-81-21","lic":"324049","st":"N/A","fl":"N/A","lat":55.957496,"lon":-113.127196},{"id":"13-36-80-21W4","name":"CNRL CBP30-13B BARNEY 12-36-80-21","lic":"324050","st":"N/A","fl":"N/A","lat":55.957496,"lon":-113.127196},{"id":"13-36-82-21W4","name":"CNRL NBP11-13D BRINT 13-36-82-21","lic":"328822","st":"PUMP","fl":"CR-BIT","lat":56.131478,"lon":-113.141308},{"id":"13-4-79-23W4","name":"CNRL DWP13 WM1 PELICAN 13-4-79-23","lic":"520744","st":"DRL&C","fl":"N/A","lat":55.798012,"lon":-113.5074},{"id":"13-4-81-22W4","name":"CNRL OBS 104 BRINT 13-4-81-22","lic":"339380","st":"N/A","fl":"N/A","lat":55.971994,"lon":-113.367598},{"id":"13-4-81-22W4","name":"CNRL OBS 106 BRINT 13-4-81-22","lic":"349320","st":"N/A","fl":"N/A","lat":55.971994,"lon":-113.367598},{"id":"13-4-81-22W4","name":"CNRL WSW 105 BRINT 13-4-81-22","lic":"339381","st":"N/A","fl":"WATER","lat":55.971994,"lon":-113.367598},{"id":"13-5-81-22W4","name":"CNRL BP9-13C BRINT 13-5-81-22","lic":"421239","st":"N/A","fl":"WATER","lat":55.971994,"lon":-113.393528},{"id":"13-5-82-22W4","name":"CNRL NHP1-13D BRINT 13-5-82-22","lic":"413804","st":"N/A","fl":"WATER","lat":56.058986,"lon":-113.401188},{"id":"13-5-82-22W4","name":"CNRL NHP1-13B RD BRINT 13-5-82-22","lic":"478250","st":"PUMP","fl":"CR-BIT","lat":56.058986,"lon":-113.401188},{"id":"13-6-80-21W4","name":"CNRL CBP3-13D BARNEY 13-6-80-21","lic":"428008","st":"PUMP","fl":"CR-BIT","lat":55.885003,"lon":-113.256553},{"id":"13-6-80-21W4","name":"CNRL CBP3-13A BARNEY 13-6-80-21","lic":"428009","st":"PUMP","fl":"CR-BIT","lat":55.885003,"lon":-113.256553},{"id":"13-6-82-19W4","name":"CNRL NBP51-13D DEADM 13-6-82-19","lic":"368416","st":"SUSP","fl":"CR-BIT","lat":56.058986,"lon":-112.959391},{"id":"13-7-79-21W4","name":"CNRL PRP5-13D PEERLESS 16-12-79-22","lic":"359355","st":"SUSP","fl":"CR-BIT","lat":55.81251,"lon":-113.249265},{"id":"13-7-80-20W4","name":"CNRL BRNP3-13D BARNEY 13-7-80-20","lic":"520334","st":"DRL&C","fl":"N/A","lat":55.899502,"lon":-113.101325},{"id":"13-7-80-20W4","name":"CNRL BRNP3-11B BARNEY 11-7-80-20","lic":"520333","st":"N/A","fl":"N/A","lat":55.899502,"lon":-113.101325},{"id":"13-7-80-21W4","name":"CNRL CBP5-13B-C BARNEY 13-7-80-21","lic":"429937","st":"PUMP","fl":"CR-BIT","lat":55.899502,"lon":-113.256553},{"id":"13-7-80-21W4","name":"CNRL CBP5-13C-N BARNEY 13-7-80-21","lic":"429938","st":"PUMP","fl":"CR-BIT","lat":55.899502,"lon":-113.256553},{"id":"13-7-81-22W4","name":"CNRL WBP40-13C BRINT 13-7-81-22","lic":"412038","st":"N/A","fl":"WATER","lat":55.986493,"lon":-113.419457},{"id":"13-7-81-22W4","name":"CNRL WBP40-13C-W BRINT 13-7-81-22","lic":"484692","st":"PUMP","fl":"CR-BIT","lat":55.986493,"lon":-113.419457},{"id":"13-7-82-19W4","name":"CNRL NBP49-13A DEADM 13-7-82-19","lic":"366054","st":"PUMP","fl":"CR-BIT","lat":56.073484,"lon":-112.959391},{"id":"13-8-81-22W4","name":"CNRL BP4-12D BRINT 13-8-81-22","lic":"481134","st":"N/A","fl":"WATER","lat":55.986493,"lon":-113.393528},{"id":"13-8-81-22W4","name":"CNRL WBP42-13C BRINT 13-8-81-22","lic":"463359","st":"PUMP","fl":"CR-BIT","lat":55.986493,"lon":-113.393528},{"id":"13-8-81-22W4","name":"CNRL BP3-13C-W BRINT 13-8-81-22","lic":"463684","st":"PUMP","fl":"CR-BIT","lat":55.986493,"lon":-113.393528},{"id":"13-9-81-20W4","name":"CNRL CBP38-14D JOLI FOU 13-9-81-20","lic":"324037","st":"N/A","fl":"N/A","lat":55.986493,"lon":-113.056444},{"id":"13-9-82-22W4","name":"CNRL NHP3B-13C BRINT 13-9-82-22","lic":"413896","st":"N/A","fl":"WATER","lat":56.073484,"lon":-113.3752},{"id":"13-9-82-22W4","name":"CNRL NHP3B-13D BRINT 13-9-82-22","lic":"413897","st":"N/A","fl":"WATER","lat":56.073484,"lon":-113.3752},{"id":"13-9-82-22W4","name":"CNRL NHP3B-13C RD BRINT 13-9-82-22","lic":"459556","st":"PUMP","fl":"CR-BIT","lat":56.073484,"lon":-113.3752},{"id":"13-9-82-22W4","name":"CNRL NHP3B- 13D RD BRINT 13-9-82-22","lic":"459557","st":"PUMP","fl":"CR-BIT","lat":56.073484,"lon":-113.3752},{"id":"14-1-81-21W4","name":"CNRL CBP33-4B BRINT 14-1-81-21","lic":"320616","st":"N/A","fl":"N/A","lat":55.971994,"lon":-113.12775},{"id":"14-10-82-19W4","name":"CNRL NBP55-14B DEADM 14-10-82-19","lic":"413401","st":"SUSP","fl":"CR-BIT","lat":56.073484,"lon":-112.87493},{"id":"14-12-81-21W4","name":"CNRL CBP38-13D BRINT 14-12-81-21","lic":"324036","st":"N/A","fl":"N/A","lat":55.986493,"lon":-113.12775},{"id":"14-12-81-23W4","name":"CNRL WBP39-14D BRINT 14-12-81-23","lic":"413485","st":"N/A","fl":"WATER","lat":55.986493,"lon":-113.438904},{"id":"14-13-81-21W4","name":"CNRL CBP40-13A BRINT 14-13-81-21","lic":"346294","st":"PUMP","fl":"CR-BIT","lat":56.000991,"lon":-113.12775},{"id":"14-13-82-23W4","name":"CNRL NHP11-6C 14-13-82-23","lic":"425600","st":"N/A","fl":"N/A","lat":56.087983,"lon":-113.446667},{"id":"14-13-83-19W4","name":"CNRL GRANOR 14-13-83-19","lic":"211671","st":"ABD","fl":"N/A","lat":56.174974,"lon":-112.829347},{"id":"14-13-83-20W4","name":"CNRL SANDY 14-13-83-20","lic":"209278","st":"ABD","fl":"N/A","lat":56.174974,"lon":-112.985629},{"id":"14-13-84-25W4","name":"CNRL GOODLOW 14-13-84-25","lic":"450259","st":"DRL&C","fl":"N/A","lat":56.261966,"lon":-113.775596},{"id":"14-14-80-23W4","name":"CNRL BRINT 14-14-80-23","lic":"322099","st":"SUSP","fl":"CR-BIT","lat":55.914,"lon":-113.457055},{"id":"14-15-79-22W4","name":"CNRL PRP6-14D-C PEERLESS 14-15-79-22","lic":"440779","st":"PUMP","fl":"CR-BIT","lat":55.827009,"lon":-113.320252},{"id":"14-15-80-20W4","name":"CNRL BRNP3-14A BARNEY 14-15-80-20","lic":"390788","st":"ABD","fl":"CR-BIT","lat":55.914,"lon":-113.017243},{"id":"14-15-82-23W4","name":"CNRL NHP12-14B BRINT 6-15-82-23","lic":"395990","st":"PUMP","fl":"CR-BIT","lat":56.087983,"lon":-113.498643},{"id":"14-15-82-23W4","name":"CNRL NHP12-14A BRINT  14-15-82-23","lic":"424989","st":"N/A","fl":"WATER","lat":56.087983,"lon":-113.498643},{"id":"14-16-81-19W4","name":"CNRL GOPHER 14-16-81-19","lic":"174674","st":"DRL&C","fl":"N/A","lat":56.000991,"lon":-112.894384},{"id":"14-16-81-20W4","name":"CNRL CBP40-14A JOLI FOU 14-16-81-20","lic":"346293","st":"PUMP","fl":"CR-BIT","lat":56.000991,"lon":-113.049961},{"id":"14-17-81-22W4","name":"CNRL BP4-4A BRINT 14-17-81-22","lic":"421646","st":"N/A","fl":"N/A","lat":56.000991,"lon":-113.387045},{"id":"14-18-80-21W4","name":"CNRL CBP16-13B BARNEY 14-18-80-21","lic":"322982","st":"N/A","fl":"N/A","lat":55.914,"lon":-113.250085},{"id":"14-18-82-21W4","name":"CNRL SE05-11B BRINT 14-18-82-21","lic":"496880","st":"N/A","fl":"N/A","lat":56.087983,"lon":-113.264751},{"id":"14-19-80-21W4","name":"CNRL CBP14-13A BARNEY 14-19-80-21","lic":"350580","st":"PUMP","fl":"CR-BIT","lat":55.928499,"lon":-113.250085},{"id":"14-19-80-22W4","name":"CNRL SBP37-14C-W BRINT 14-19-80-22","lic":"484431","st":"PUMP","fl":"CR-BIT","lat":55.928499,"lon":-113.405313},{"id":"14-19-82-19W4","name":"CNRL NBP29-3A DEADM 14-19-82-19","lic":"371811","st":"N/A","fl":"N/A","lat":56.102481,"lon":-112.952894},{"id":"14-19-82-20W4","name":"CNRL NBP14-3B SANDY 14-19-82-20","lic":"334977","st":"N/A","fl":"N/A","lat":56.102481,"lon":-113.108822},{"id":"14-2-80-21W4","name":"CNRL SLP12-14D BARNEY 14-2-80-21","lic":"408643","st":"ABD","fl":"CR-BIT","lat":55.885003,"lon":-113.146599},{"id":"14-2-80-21W4","name":"CNRL SLP12-14D 103 BARNEY 14-2-80-21","lic":"408644","st":"ABD","fl":"CR-BIT","lat":55.885003,"lon":-113.146599},{"id":"14-2-82-21W4","name":"CNRL BRINT 14-2-82-21","lic":"197335","st":"ABD","fl":"N/A","lat":56.058986,"lon":-113.160799},{"id":"14-21-80-21W4","name":"CNRL CBP17-14C BARNEY 14-21-80-21","lic":"448650","st":"PUMP","fl":"CR-BIT","lat":55.928499,"lon":-113.198342},{"id":"14-21-80-21W4","name":"CNRL CBP17-14D-C BARNEY 14-21-80-21","lic":"448651","st":"PUMP","fl":"CR-BIT","lat":55.928499,"lon":-113.198342},{"id":"14-22-79-22W4","name":"CNRL PRP7-14D PEERLESS 15-23-79-22","lic":"391166","st":"N/A","fl":"WATER","lat":55.841507,"lon":-113.320252},{"id":"14-22-79-22W4","name":"CNRL PRP7-14A-S PEERLESS 14-22-79-22","lic":"440806","st":"PUMP","fl":"CR-BIT","lat":55.841507,"lon":-113.320252},{"id":"14-22-79-22W4","name":"CNRL PRP7-14D-N PEERLESS 14-22-79-22","lic":"440807","st":"PUMP","fl":"CR-BIT","lat":55.841507,"lon":-113.320252},{"id":"14-22-80-21W4","name":"CNRL CBP19-14C BARNEY 14-22-80-21","lic":"355316","st":"PUMP","fl":"CR-BIT","lat":55.928499,"lon":-113.172471},{"id":"14-22-82-21W4","name":"CNRL NBP6-3A BRINT 14-22-82-21","lic":"301192","st":"N/A","fl":"N/A","lat":56.102481,"lon":-113.186787},{"id":"14-23-79-21W4","name":"CNRL SP12-14D PEERLESS 14-23-79-21","lic":"390364","st":"ABD","fl":"CR-BIT","lat":55.841507,"lon":-113.139558},{"id":"14-23-79-21W4","name":"CNRL SLP11-14C2 PEERLESS 14-23-79-21","lic":"521160","st":"DRL&C","fl":"N/A","lat":55.841507,"lon":-113.139558},{"id":"14-23-79-21W4","name":"CNRL SLP11-14C3 PEERLESS 14-23-79-21","lic":"521161","st":"DRL&C","fl":"N/A","lat":55.841507,"lon":-113.139558},{"id":"14-23-80-21W4","name":"CNRL CBP22-15C BARNEY 15-23-80-21","lic":"346243","st":"N/A","fl":"N/A","lat":55.928499,"lon":-113.146599},{"id":"14-23-80-23W4","name":"CNRL SBP46-14C BRINT 14-23-80-23","lic":"392078","st":"SUSP","fl":"CR-BIT","lat":55.928499,"lon":-113.457055},{"id":"14-23-80-23W4","name":"CNRL SBP46-14D BRINT 14-23-80-23","lic":"392079","st":"PUMP","fl":"CR-BIT","lat":55.928499,"lon":-113.457055},{"id":"14-24-80-23W4","name":"CNRL SBP40-14C BRINT 14-24-80-23","lic":"327793","st":"PUMP","fl":"CR-BIT","lat":55.928499,"lon":-113.431184},{"id":"14-24-81-21W4","name":"CNRL CBP42-14B BRINT 14-24-81-21","lic":"367964","st":"SUSP","fl":"CR-BIT","lat":56.01549,"lon":-113.12775},{"id":"14-25-81-20W4","name":"CNRL JOLI FOU 14-25-81-20","lic":"346355","st":"DRL&C","fl":"N/A","lat":56.029989,"lon":-112.972173},{"id":"14-25-81-21W4","name":"CNRL CBP43-14B BRINT 14-25-81-21","lic":"367917","st":"SUSP","fl":"CR-BIT","lat":56.029989,"lon":-113.12775},{"id":"14-25-81-22W4","name":"CNRL BP101-14D BRINT 14-25-81-22","lic":"408217","st":"SUSP","fl":"CR-BIT","lat":56.029989,"lon":-113.283327},{"id":"14-26-79-21W4","name":"CNRL SLP11-14C2 PEERLESS 14-26-79-21","lic":"521160","st":"N/A","fl":"N/A","lat":55.856006,"lon":-113.139558},{"id":"14-26-82-21W4","name":"CNRL NBP9-14C BRINT 14-26-82-21","lic":"303131","st":"N/A","fl":"N/A","lat":56.11698,"lon":-113.160799},{"id":"14-26-84-25W4","name":"CNRL GDLP3-14A GOODLOW 14-26-84-25","lic":"479831","st":"DRL&C","fl":"N/A","lat":56.290963,"lon":-113.801703},{"id":"14-27-79-21W4","name":"CNRL SLP10A-14A PEERLESS 14-27-79-21","lic":"518782","st":"PUMP","fl":"CR-BIT","lat":55.856006,"lon":-113.165372},{"id":"14-27-79-22W4","name":"CNRL PRP2-14A PEERLESS 14-27-79-22","lic":"395044","st":"SUSP","fl":"CR-BIT","lat":55.856006,"lon":-113.320252},{"id":"14-27-81-22W4","name":"CNRL BP15-14D BRINT 14-27-81-22","lic":"506001","st":"PUMP","fl":"CR-BIT","lat":56.029989,"lon":-113.335186},{"id":"14-27-81-23W4","name":"CNRL WBP17 14D BRINT 15-27-81-23","lic":"257180","st":"N/A","fl":"N/A","lat":56.029989,"lon":-113.490763},{"id":"14-28-79-21W4","name":"CNRL PEERLESS 14-28-79-21","lic":"73600A","st":"ABD","fl":"CR-BIT","lat":55.856006,"lon":-113.191185},{"id":"14-28-79-21W4","name":"CNRL PEERLESS 14-28-79-21","lic":"73601","st":"ABD","fl":"N/A","lat":55.856006,"lon":-113.191185},{"id":"14-28-79-21W4","name":"CNRL PEERLESS 14-28-79-21","lic":"73600B","st":"ABD","fl":"N/A","lat":55.856006,"lon":-113.191185},{"id":"14-28-80-20W4","name":"CNRL CBP28-14D BARNEY 14-28-80-20","lic":"322602","st":"PUMP","fl":"CR-BIT","lat":55.942997,"lon":-113.043114},{"id":"14-28-81-19W4","name":"CNRL SANDY 14-28-81-19","lic":"415351","st":"ABD","fl":"N/A","lat":56.029989,"lon":-112.894384},{"id":"14-28-81-22W4","name":"CNRL WSW103 BRINT 14-28-81-22","lic":"343934","st":"N/A","fl":"N/A","lat":56.029989,"lon":-113.361116},{"id":"14-28-81-23W4","name":"CNRL WBP11-14C-E BRINT 14-28-81-23","lic":"453743","st":"N/A","fl":"WATER","lat":56.029989,"lon":-113.516693},{"id":"14-29-81-23W4","name":"CNRL WBP50-14C BRINT 14-29-81-23","lic":"407669","st":"SUSP","fl":"CR-BIT","lat":56.029989,"lon":-113.542622},{"id":"14-29-81-23W4","name":"CNRL WBP50-14D BRINT 14-29-81-23","lic":"407670","st":"SUSP","fl":"CR-BIT","lat":56.029989,"lon":-113.542622},{"id":"14-3-80-22W4","name":"CNRL SBP43-15C BRINT 14-4-80-22","lic":"351810","st":"N/A","fl":"N/A","lat":55.885003,"lon":-113.327699},{"id":"14-3-85-23W4","name":"CNRL WOODENH 14-3-85-23","lic":"417461","st":"SUSP","fl":"CR-BIT","lat":56.31996,"lon":-113.522548},{"id":"14-30-78-22W4","name":"CNRL DWP09 EI2 DRIFTW 14-30-78-22","lic":"521945","st":"DRL&C","fl":"N/A","lat":55.769015,"lon":-113.390115},{"id":"14-30-79-21W4","name":"CNRL PEERLESS 14-30-79-21","lic":"194174","st":"ABD","fl":"N/A","lat":55.856006,"lon":-113.242812},{"id":"14-30-81-22W4","name":"CNRL WSW 103 BRINT 14-30-81-22","lic":"344613","st":"N/A","fl":"N/A","lat":56.029989,"lon":-113.412975},{"id":"14-30-82-21W4","name":"CNRL SE05 BRINT 14-30-82-21","lic":"491026","st":"PUMP","fl":"CR-BIT","lat":56.11698,"lon":-113.264751},{"id":"14-31-78-24W4","name":"CNRL PELICAN 14-31-78-24","lic":"449857","st":"SUSP","fl":"CR-BIT","lat":55.783513,"lon":-113.699185},{"id":"14-31-79-21W4","name":"CNRL SLP1-14C PEERLESS 14-31-79-21","lic":"430421","st":"PUMP","fl":"CR-BIT","lat":55.870504,"lon":-113.242812},{"id":"14-31-81-22W4","name":"CNRL HTLP1-14D BRINT 14-31-81-22","lic":"360368","st":"PUMP","fl":"CR-BIT","lat":56.044487,"lon":-113.412975},{"id":"14-31-82-19W4","name":"CNRL NBP29-14C DEADM 14-31-82-19","lic":"371814","st":"PUMP","fl":"CR-BIT","lat":56.131478,"lon":-112.952894},{"id":"14-31-82-19W4","name":"CNRL NBP29-14D DEADM 14-31-82-19","lic":"371815","st":"PUMP","fl":"CR-BIT","lat":56.131478,"lon":-112.952894},{"id":"14-31-82-20W4","name":"CNRL NBP14-14C SANDY 14-31-82-20","lic":"334979","st":"PUMP","fl":"CR-BIT","lat":56.131478,"lon":-113.108822},{"id":"14-31-82-21W4","name":"CNRL NBP1-14C BRINT 11-31-82-21","lic":"364588","st":"N/A","fl":"WATER","lat":56.131478,"lon":-113.264751},{"id":"14-31-82-21W4","name":"CNRL NBP1-14C 103 BRINT 14-31-82-21","lic":"393993","st":"PUMP","fl":"CR-BIT","lat":56.131478,"lon":-113.264751},{"id":"14-32-78-24W4","name":"CNRL PELICAN 14-32-78-24","lic":"449832","st":"SUSP","fl":"CR-BIT","lat":55.783513,"lon":-113.673429},{"id":"14-32-79-21W4","name":"CNRL SLP5-14D PEERLESS 14-32-79-21","lic":"430545","st":"PUMP","fl":"CR-BIT","lat":55.870504,"lon":-113.216999},{"id":"14-32-79-21W4","name":"CNRL SLP4-14C-E PEERLESS 14-32-79-21","lic":"441156","st":"N/A","fl":"WATER","lat":55.870504,"lon":-113.216999},{"id":"14-32-79-21W4","name":"CNRL SLP4-14N PEERLESS 14-32-79-21","lic":"446508","st":"PUMP","fl":"CR-BIT","lat":55.870504,"lon":-113.216999},{"id":"14-32-79-21W4","name":"CNRL SLP4-14D-W PEERLESS 14-32-79-21","lic":"446509","st":"N/A","fl":"WATER","lat":55.870504,"lon":-113.216999},{"id":"14-32-81-22W4","name":"CNRL HTLP3-14C BRINT 14-32-81-22","lic":"362451","st":"PUMP","fl":"CR-BIT","lat":56.044487,"lon":-113.387045},{"id":"14-32-82-19W4","name":"CNRL NBP31-14C DEADM 14-32-82-19","lic":"351889","st":"ABD","fl":"CR-BIT","lat":56.131478,"lon":-112.926906},{"id":"14-32-82-19W4","name":"CNRL NBP32-14D DEADM 14-32-82-19","lic":"370470","st":"PUMP","fl":"CR-BIT","lat":56.131478,"lon":-112.926906},{"id":"14-32-82-19W4","name":"CNRL NBP31-14C-S DEADM 14-32-82-19","lic":"453563","st":"PUMP","fl":"CR-BIT","lat":56.131478,"lon":-112.926906},{"id":"14-32-82-20W4","name":"CNRL NBP16-14C SANDY 6-32-82-20","lic":"334961","st":"ABZONE","fl":"CR-BIT","lat":56.131478,"lon":-113.082834},{"id":"14-32-82-20W4","name":"CNRL NBP16-14C RD SANDY 14-32-82-20","lic":"451968","st":"SUSP","fl":"CR-BIT","lat":56.131478,"lon":-113.082834},{"id":"14-32-82-21W4","name":"CNRL NBP2-14C BRINT 14-32-82-21","lic":"364593","st":"N/A","fl":"WATER","lat":56.131478,"lon":-113.238763},{"id":"14-32-82-21W4","name":"CNRL NBP3-14D BRINT 14-32-82-21","lic":"375111","st":"PUMP","fl":"CR-BIT","lat":56.131478,"lon":-113.238763},{"id":"14-32-84-23W4","name":"CNRL LVP3-14C GERMAIN 14-32-84-23","lic":"430043","st":"DRL&C","fl":"N/A","lat":56.305461,"lon":-113.566748},{"id":"14-33-80-20W4","name":"CNRL CBP30-14D JOLI FOU 3-4-81-20","lic":"324051","st":"N/A","fl":"N/A","lat":55.957496,"lon":-113.043114},{"id":"14-33-80-20W4","name":"CNRL CBP30-14A BARNEY 11-33-80-20","lic":"324052","st":"N/A","fl":"N/A","lat":55.957496,"lon":-113.043114},{"id":"14-33-80-22W4","name":"CNRL SBP7-13D RD BRINT 14-33-80-22","lic":"455193","st":"PUMP","fl":"CR-BIT","lat":55.957496,"lon":-113.35357},{"id":"14-33-80-22W4","name":"CNRL SBP12-14D BRINT 14-33-80-22","lic":"485523","st":"PUMP","fl":"CR-BIT","lat":55.957496,"lon":-113.35357},{"id":"14-33-81-22W4","name":"CNRL HTLP4-14D BRINT 14-33-81-22","lic":"362385","st":"PUMP","fl":"CR-BIT","lat":56.044487,"lon":-113.361116},{"id":"14-33-82-19W4","name":"CNRL NBP34-14C DEADM 14-33-82-19","lic":"384551","st":"PUMP","fl":"CR-BIT","lat":56.131478,"lon":-112.900918},{"id":"14-33-82-19W4","name":"CNRL NBP34-14C 102 DEADM 14-33-82-19","lic":"384553","st":"N/A","fl":"WATER","lat":56.131478,"lon":-112.900918},{"id":"14-33-82-19W4","name":"CNRL NBP34-14D DEADM 14-33-82-19","lic":"384554","st":"PUMP","fl":"CR-BIT","lat":56.131478,"lon":-112.900918},{"id":"14-33-82-20W4","name":"CNRL NBP19-14C SANDY 14-33-82-20","lic":"342634","st":"SUSP","fl":"CR-BIT","lat":56.131478,"lon":-113.056846},{"id":"14-33-82-21W4","name":"CNRL NBP4-14C BRINT 14-33-82-21","lic":"375115","st":"PUMP","fl":"CR-BIT","lat":56.131478,"lon":-113.212775},{"id":"14-33-84-23W4","name":"CNRL WOODENHOUSE 14-33-84-23","lic":"415396","st":"SUSP","fl":"CR-BIT","lat":56.305461,"lon":-113.540641},{"id":"14-34-81-22W4","name":"CNRL HTLP5-14C BRINT 14-34-81-22","lic":"371956","st":"PUMP","fl":"CR-BIT","lat":56.044487,"lon":-113.335186},{"id":"14-34-81-22W4","name":"CNRL HTLP6-14D BRINT 14-34-81-22","lic":"416419","st":"N/A","fl":"WATER","lat":56.044487,"lon":-113.335186},{"id":"14-34-81-23W4","name":"CNRL BRINT 14-34-81-23","lic":"431908","st":"ABD","fl":"N/A","lat":56.044487,"lon":-113.490763},{"id":"14-34-82-19W4","name":"CNRL NBP37-14C DEADM 14-34-82-19","lic":"390945","st":"N/A","fl":"WATER","lat":56.131478,"lon":-112.87493},{"id":"14-34-82-19W4","name":"CNRL NBP37-14D DEADM 14-34-82-19","lic":"390946","st":"PUMP","fl":"CR-BIT","lat":56.131478,"lon":-112.87493},{"id":"14-34-82-19W4","name":"CNRL NBP37-14D 103 DEADM 14-34-82-19","lic":"390947","st":"N/A","fl":"WATER","lat":56.131478,"lon":-112.87493},{"id":"14-34-82-20W4","name":"CNRL NBP21-14C SANDY 14-34-82-20","lic":"357181","st":"PUMP","fl":"CR-BIT","lat":56.131478,"lon":-113.030858},{"id":"14-34-82-21W4","name":"CNRL NBP6-14D BRINT 6-34-82-21","lic":"301189","st":"PUMP","fl":"CR-BIT","lat":56.131478,"lon":-113.186787},{"id":"14-35-80-22W4","name":"CNRL SBP16-14C BRINT 14-35-80-22","lic":"413803","st":"PUMP","fl":"CR-BIT","lat":55.957496,"lon":-113.301827},{"id":"14-35-82-19W4","name":"CNRL NBP39-14D DEADM 14-35-82-19","lic":"415620","st":"N/A","fl":"WATER","lat":56.131478,"lon":-112.848942},{"id":"14-35-82-19W4","name":"CNRL NBP39-14C DEADM 14-35-82-19","lic":"415621","st":"PUMP","fl":"CR-BIT","lat":56.131478,"lon":-112.848942},{"id":"14-35-82-21W4","name":"CNRL NBP9-14C BRINT 14-35-82-21","lic":"303131","st":"PUMP","fl":"CR-BIT","lat":56.131478,"lon":-113.160799},{"id":"14-36-77-26W4","name":"CNRL MCMULLEN 14-36-77-26","lic":"147378","st":"ABD","fl":"N/A","lat":55.696522,"lon":-113.870851},{"id":"14-36-79-22W4","name":"CNRL PRP2-14D-E PEERLESS 14-36-79-22","lic":"441067","st":"PUMP","fl":"CR-BIT","lat":55.870504,"lon":-113.268626},{"id":"14-36-80-23W4","name":"CNRL WBP44-14B BRINT 14-36-80-23","lic":"368283","st":"SUSP","fl":"CR-BIT","lat":55.957496,"lon":-113.431184},{"id":"14-36-82-20W4","name":"CNRL NBP27-14D SANDY 14-36-82-20","lic":"385313","st":"PUMP","fl":"CR-BIT","lat":56.131478,"lon":-112.978882},{"id":"14-36-82-20W4","name":"CNRL NBP27-14D 102 SANDY 14-36-82-20","lic":"413812","st":"N/A","fl":"WATER","lat":56.131478,"lon":-112.978882},{"id":"14-36-82-20W4","name":"CNRL NBP27-14C-W SANDY 14-36-82-20","lic":"439909","st":"PUMP","fl":"CR-BIT","lat":56.131478,"lon":-112.978882},{"id":"14-36-82-21W4","name":"CNRL NBP11-14C BRINT 6-36-82-21","lic":"328821","st":"PUMP","fl":"CR-BIT","lat":56.131478,"lon":-113.134811},{"id":"14-4-81-20W4","name":"CNRL CBP33-3A JOLI FOU 14-4-81-20","lic":"320618","st":"PUMP","fl":"CR-BIT","lat":55.971994,"lon":-113.049961},{"id":"14-4-81-20W4","name":"CNRL CBP32-11D JOLI FOU 14-4-81-20","lic":"324055","st":"PUMP","fl":"CR-BIT","lat":55.971994,"lon":-113.049961},{"id":"14-4-81-22W4","name":"CNRL BP25A 14D BRINT 14-4-81-22","lic":"424965","st":"N/A","fl":"WATER","lat":55.971994,"lon":-113.361116},{"id":"14-4-81-22W4","name":"CNRL BP25A 14A BRINT 14-4-81-22","lic":"424966","st":"N/A","fl":"WATER","lat":55.971994,"lon":-113.361116},{"id":"14-4-82-22W4","name":"CNRL NHP4 BRINT 14-4-82-22","lic":"303140","st":"N/A","fl":"WATER","lat":56.058986,"lon":-113.368703},{"id":"14-4-85-23W4","name":"CNRL WOODENH 14-4-85-23","lic":"404495","st":"ABD","fl":"N/A","lat":56.31996,"lon":-113.548713},{"id":"14-5-77-24W4","name":"CNRL HZ MARTENH 14-5-77-24","lic":"516805","st":"N/A","fl":"N/A","lat":55.624029,"lon":-113.665263},{"id":"14-5-79-20W4","name":"CNRL BARNEY 14-5-79-20","lic":"430229","st":"ABD","fl":"N/A","lat":55.798012,"lon":-113.062118},{"id":"14-5-81-21W4","name":"CNRL CBP7-3B BRINT 14-5-81-21","lic":"351182","st":"PUMP","fl":"CR-BIT","lat":55.971994,"lon":-113.231468},{"id":"14-5-82-22W4","name":"CNRL NHP1-14D BRINT 14-5-82-22","lic":"413805","st":"N/A","fl":"WATER","lat":56.058986,"lon":-113.394691},{"id":"14-6-77-24W4","name":"CNRL HZ 102 MARTENH 14-6-77-24","lic":"516807","st":"N/A","fl":"N/A","lat":55.624029,"lon":-113.690961},{"id":"14-6-80-21W4","name":"CNRL CBP3-13D BARNEY 14-6-80-21","lic":"428008","st":"N/A","fl":"N/A","lat":55.885003,"lon":-113.250085},{"id":"14-7-81-22W4","name":"CNRL WBP40-14C-W BRINT 14-7-81-22","lic":"462885","st":"N/A","fl":"WATER","lat":55.986493,"lon":-113.412975},{"id":"14-7-81-22W4","name":"CNRL WBP41-14D BRINT 14-7-81-22","lic":"462894","st":"N/A","fl":"WATER","lat":55.986493,"lon":-113.412975},{"id":"14-7-82-19W4","name":"CNRL NBP55-14B SANDY 14-7-82-19","lic":"413384","st":"SUSP","fl":"CR-BIT","lat":56.073484,"lon":-112.952894},{"id":"14-8-79-21W4","name":"CNRL PEERLESS 14-8-79-21","lic":"210565","st":"ABD","fl":"N/A","lat":55.81251,"lon":-113.216999},{"id":"14-8-81-22W4","name":"CNRL BP6-14C BRINT 14-8-81-22","lic":"480943","st":"PUMP","fl":"CR-BIT","lat":55.986493,"lon":-113.387045},{"id":"14-8-82-19W4","name":"CNRL DEADM 14-8-82-19","lic":"346006","st":"DRL&C","fl":"N/A","lat":56.073484,"lon":-112.926906},{"id":"14-9-81-20W4","name":"CNRL CBP38-14D JOLI FOU 13-9-81-20","lic":"324037","st":"PUMP","fl":"CR-BIT","lat":55.986493,"lon":-113.049961},{"id":"14-9-82-22W4","name":"CNRL NHP3B-14C RE BRINT 14-9-82-22","lic":"459560","st":"PUMP","fl":"CR-BIT","lat":56.073484,"lon":-113.368703},{"id":"15-1-81-23W4","name":"CNRL WBP46-15C BRINT 15-1-81-23","lic":"394670","st":"PUMP","fl":"CR-BIT","lat":55.971994,"lon":-113.432422},{"id":"15-12-81-23W4","name":"CNRL WBP39-15D BRINT 15-12-81-23","lic":"413486","st":"N/A","fl":"WATER","lat":55.986493,"lon":-113.432422},{"id":"15-12-81-23W4","name":"CNRL WBP39-15C-W BRINT 15-12-81-23","lic":"485566","st":"PUMP","fl":"CR-BIT","lat":55.986493,"lon":-113.432422},{"id":"15-13-82-20W4","name":"CNRL NBP47-13D SANDY 15-13-82-20","lic":"354388","st":"N/A","fl":"N/A","lat":56.087983,"lon":-112.972385},{"id":"15-14-78-23W4","name":"CNRL DWP09 SM1 DRIFTW 15-14-78-23","lic":"521943","st":"N/A","fl":"N/A","lat":55.740017,"lon":-113.435187},{"id":"15-15-82-20W4","name":"CNRL NBP47-13C SANDY 15-15-82-20","lic":"354390","st":"N/A","fl":"N/A","lat":56.087983,"lon":-113.024361},{"id":"15-16-84-24W4","name":"CNRL GOODLOW 15-16-84-24","lic":"417973","st":"DRL&C","fl":"N/A","lat":56.261966,"lon":-113.690752},{"id":"15-18-82-23W4","name":"CNRL NHP17-15B BRINT  15-18-82-23","lic":"430804","st":"PUMP","fl":"CR-BIT","lat":56.087983,"lon":-113.570111},{"id":"15-19-80-22W4","name":"CNRL SBP2-15D 103 BRINT 15-19-80-22","lic":"505648","st":"PUMP","fl":"CR-BIT","lat":55.928499,"lon":-113.398845},{"id":"15-19-80-22W4","name":"CNRL SBP2-15D 104 BRINT 15-19-80-22","lic":"514974","st":"PUMP","fl":"CR-BIT","lat":55.928499,"lon":-113.398845},{"id":"15-19-81-21W4","name":"CNRL BRINT 15-19-81-21","lic":"211917","st":"ABD","fl":"N/A","lat":56.01549,"lon":-113.250915},{"id":"15-2-80-21W4","name":"CNRL SP12-15D BARNEY 15-2-80-21","lic":"390525","st":"ABD","fl":"CR-BIT","lat":55.885003,"lon":-113.140132},{"id":"15-2-80-21W4","name":"CNRL SLP12-15C BARNEY 15-2-80-21","lic":"408645","st":"ABD","fl":"CR-BIT","lat":55.885003,"lon":-113.140132},{"id":"15-2-80-22W4","name":"CNRL SBP43-16D BRINT 15-2-80-22","lic":"351807","st":"N/A","fl":"N/A","lat":55.885003,"lon":-113.29536},{"id":"15-20-81-22W4","name":"CNRL OBS BRINT 15-20-81-22","lic":"344430","st":"N/A","fl":"N/A","lat":56.01549,"lon":-113.380563},{"id":"15-20-81-22W4","name":"CNRL WSW 102 BRINT 15-20-81-22","lic":"345030","st":"N/A","fl":"WATER","lat":56.01549,"lon":-113.380563},{"id":"15-20-81-23W4","name":"CNRL WBP12-15B-S BRINT 15-20-81-23","lic":"454037","st":"PUMP","fl":"CR-BIT","lat":56.01549,"lon":-113.53614},{"id":"15-20-81-23W4","name":"CNRL WBP12-15B-N BRINT 15-20-81-23","lic":"454038","st":"N/A","fl":"WATER","lat":56.01549,"lon":-113.53614},{"id":"15-21-80-21W4","name":"CNRL CBP17-15C BARNEY 15-21-80-21","lic":"339622","st":"N/A","fl":"WATER","lat":55.928499,"lon":-113.191874},{"id":"15-21-80-21W4","name":"CNRL CBP17-15C-W BARNEY 15-21-80-21","lic":"448652","st":"PUMP","fl":"CR-BIT","lat":55.928499,"lon":-113.191874},{"id":"15-21-81-20W4","name":"CNRL CBP42-15A JOLI FOU 15-21-81-20","lic":"367961","st":"PUMP","fl":"CR-BIT","lat":56.01549,"lon":-113.043479},{"id":"15-22-80-21W4","name":"CNRL CBP20-15D BARNEY 15-22-80-21","lic":"344316","st":"PUMP","fl":"CR-BIT","lat":55.928499,"lon":-113.166003},{"id":"15-23-79-21W4","name":"CNRL SP12-15D PEERLESS 15-23-79-21","lic":"390365","st":"ABD","fl":"CR-BIT","lat":55.841507,"lon":-113.133105},{"id":"15-23-79-22W4","name":"CNRL PRP7-14D PEERLESS 15-23-79-22","lic":"391166","st":"N/A","fl":"N/A","lat":55.841507,"lon":-113.287986},{"id":"15-23-80-21W4","name":"CNRL CBP22-15C BARNEY 15-23-80-21","lic":"346243","st":"PUMP","fl":"CR-BIT","lat":55.928499,"lon":-113.140132},{"id":"15-23-80-21W4","name":"CNRL CBP22-15D BARNEY 2-23-80-21","lic":"346244","st":"PUMP","fl":"CR-BIT","lat":55.928499,"lon":-113.140132},{"id":"15-23-80-23W4","name":"CNRL SBP46-15D BRINT 15-23-80-23","lic":"392080","st":"PUMP","fl":"CR-BIT","lat":55.928499,"lon":-113.450587},{"id":"15-23-84-25W4","name":"CNRL GOODLOW 15-23-84-25","lic":"416510","st":"DRL&C","fl":"N/A","lat":56.276464,"lon":-113.795176},{"id":"15-26-80-21W4","name":"CNRL CBP13-2B RE BARNEY 15-26-80-21","lic":"349094","st":"PUMP","fl":"CR-BIT","lat":55.942997,"lon":-113.140132},{"id":"15-26-80-22W4","name":"CNRL SBP21-15C BRINT 15-26-80-22","lic":"413782","st":"PUMP","fl":"CR-BIT","lat":55.942997,"lon":-113.29536},{"id":"15-26-81-22W4","name":"CNRL BP102-15D BRINT 15-26-81-22","lic":"423949","st":"SUSP","fl":"CR-BIT","lat":56.029989,"lon":-113.302774},{"id":"15-26-84-26W4","name":"CNRL GOODLOW 15-26-84-26","lic":"230444","st":"ABZONE","fl":"N/A","lat":56.290963,"lon":-113.951813},{"id":"15-27-79-21W4","name":"CNRL SLP10A-14A PEERLESS 15-27-79-21","lic":"518782","st":"N/A","fl":"N/A","lat":55.856006,"lon":-113.158918},{"id":"15-27-79-22W4","name":"CNRL PRP2-14D PEERLESS 15-27-79-22","lic":"395045","st":"SUSP","fl":"CR-BIT","lat":55.856006,"lon":-113.313799},{"id":"15-27-81-22W4","name":"CNRL OBS BRINT 15-27-81-22","lic":"320303","st":"N/A","fl":"N/A","lat":56.029989,"lon":-113.328704},{"id":"15-27-81-22W4","name":"CNRL WSW 103 BRINT 15-27-81-22","lic":"320623","st":"N/A","fl":"WATER","lat":56.029989,"lon":-113.328704},{"id":"15-27-81-23W4","name":"CNRL WBP17 14D BRINT 15-27-81-23","lic":"257180","st":"N/A","fl":"WATER","lat":56.029989,"lon":-113.484281},{"id":"15-27-84-25W4","name":"CNRL GDLP2-15C GOODLOW 15-27-84-25","lic":"506637","st":"PUMP","fl":"CR-BIT","lat":56.290963,"lon":-113.821282},{"id":"15-27-84-25W4","name":"CNRL GDLP2-15D GOODLOW 15-27-84-25","lic":"506638","st":"PUMP","fl":"CR-BIT","lat":56.290963,"lon":-113.821282},{"id":"15-28-81-20W4","name":"CNRL CBP43-15A JOLI FOU 15-28-81-20","lic":"367914","st":"PUMP","fl":"CR-BIT","lat":56.029989,"lon":-113.043479},{"id":"15-28-81-23W4","name":"CNRL WBP11-15C BRINT 15-28-81-23","lic":"453794","st":"N/A","fl":"WATER","lat":56.029989,"lon":-113.51021},{"id":"15-28-81-23W4","name":"CNRL WBP11-15A BRINT 15-28-81-23","lic":"453795","st":"N/A","fl":"WATER","lat":56.029989,"lon":-113.51021},{"id":"15-28-83-21W4","name":"CNRL GERMAIN 15-28-83-21","lic":"428859","st":"ABD","fl":"N/A","lat":56.203971,"lon":-113.213539},{"id":"15-29-81-22W4","name":"CNRL WSW 103 BRINT 15-29-81-22","lic":"344626","st":"N/A","fl":"N/A","lat":56.029989,"lon":-113.380563},{"id":"15-29-81-23W4","name":"CNRL WBP10-15D BRINT 15-29-81-23","lic":"409170","st":"PUMP","fl":"CR-BIT","lat":56.029989,"lon":-113.53614},{"id":"15-3-80-21W4","name":"CNRL SLP10A-15D BARNEY 15-3-80-21","lic":"408248","st":"SUSP","fl":"CR-BIT","lat":55.885003,"lon":-113.166003},{"id":"15-3-81-22W4","name":"CNRL BP19-15C BRINT 15-3-81-22","lic":"420783","st":"PUMP","fl":"CR-BIT","lat":55.971994,"lon":-113.328704},{"id":"15-3-81-22W4","name":"CNRL ATHA 15-3-81-22","lic":"105089","st":"ABD","fl":"CR-BIT","lat":55.971994,"lon":-113.328704},{"id":"15-30-84-23W4","name":"CNRL LVP1A-2B GERMAIN 15-30-84-23","lic":"424956","st":"N/A","fl":"N/A","lat":56.290963,"lon":-113.586327},{"id":"15-31-79-21W4","name":"CNRL SLP2-15C PEERLESS 15-31-79-21","lic":"430358","st":"PUMP","fl":"CR-BIT","lat":55.870504,"lon":-113.236359},{"id":"15-31-79-21W4","name":"CNRL SLP3-15D PEERLESS 15-31-79-21","lic":"430432","st":"PUMP","fl":"CR-BIT","lat":55.870504,"lon":-113.236359},{"id":"15-31-81-22W4","name":"CNRL HTLP1-15D BRINT 15-31-81-22","lic":"360369","st":"PUMP","fl":"CR-BIT","lat":56.044487,"lon":-113.406492},{"id":"15-31-82-19W4","name":"CNRL NBP30-15D DEADM 15-31-82-19","lic":"351895","st":"PUMP","fl":"CR-BIT","lat":56.131478,"lon":-112.946397},{"id":"15-31-82-20W4","name":"CNRL NBP14-15C SANDY 15-31-82-20","lic":"334978","st":"N/A","fl":"N/A","lat":56.131478,"lon":-113.102325},{"id":"15-31-82-20W4","name":"CNRL NBP15-15D SANDY 15-31-82-20","lic":"334982","st":"PUMP","fl":"CR-BIT","lat":56.131478,"lon":-113.102325},{"id":"15-31-82-21W4","name":"CNRL NBP2-15D BRINT 15-31-82-21","lic":"364589","st":"N/A","fl":"WATER","lat":56.131478,"lon":-113.258254},{"id":"15-31-82-21W4","name":"CNRL NBP1-15C BRINT 15-31-82-21","lic":"381582","st":"DRL&C","fl":"N/A","lat":56.131478,"lon":-113.258254},{"id":"15-31-82-21W4","name":"CNRL NBP1-15C 103 BRINT 15-31-82-21","lic":"393994","st":"PUMP","fl":"CR-BIT","lat":56.131478,"lon":-113.258254},{"id":"15-31-83-19W4","name":"CNRL GRANOR 15-31-83-19","lic":"406345","st":"ABD","fl":"N/A","lat":56.21847,"lon":-112.95307},{"id":"15-32-79-21W4","name":"CNRL SLP5-15D PEERLESS 15-32-79-21","lic":"430546","st":"PUMP","fl":"CR-BIT","lat":55.870504,"lon":-113.210545},{"id":"15-32-81-22W4","name":"CNRL HTLP3-15C BRINT 15-32-81-22","lic":"362452","st":"PUMP","fl":"CR-BIT","lat":56.044487,"lon":-113.380563},{"id":"15-32-82-19W4","name":"CNRL NBP32-15D DEADM 15-32-82-19","lic":"370484","st":"PUMP","fl":"CR-BIT","lat":56.131478,"lon":-112.920409},{"id":"15-32-82-20W4","name":"CNRL NBP17-15C SANDY 10-32-82-20","lic":"341142","st":"SUSP","fl":"CR-BIT","lat":56.131478,"lon":-113.076337},{"id":"15-32-82-20W4","name":"CNRL NBP17-15D SANDY 15-32-82-20","lic":"341143","st":"SUSP","fl":"CR-BIT","lat":56.131478,"lon":-113.076337},{"id":"15-32-82-21W4","name":"CNRL NBP3-15D BRINT 10-32-82-21","lic":"375112","st":"PUMP","fl":"CR-BIT","lat":56.131478,"lon":-113.232266},{"id":"15-32-82-22W4","name":"CNRL BRINT 15-32-82-22","lic":"194857","st":"ABD","fl":"N/A","lat":56.131478,"lon":-113.388194},{"id":"15-32-84-23W4","name":"CNRL LVP3A-15C GERMAIN 15-32-84-23","lic":"430792","st":"SUSP","fl":"CR-BIT","lat":56.305461,"lon":-113.560221},